[{"text": "@H3ct0r_now make some it's easy (:", "created_at": "2013-04-13T17:51:04", "screen_name": "babyyangelll_", "coordinates": {"type": "Point", "coordinates": [-117.88182011, 34.06504881]}},{"text": "I hate how fast this week went &amp; how fast the weekend is going cuz even tho I know you have to leave a selfish part of me doesnt want you to", "created_at": "2013-04-13T17:51:05", "screen_name": "_PiscesGirl96", "coordinates": {"type": "Point", "coordinates": [-122.3274585, 47.064662]}},{"text": "@SLeveretteActor As long as she's drunkerer it'll be fine. :P", "created_at": "2013-04-13T17:51:05", "screen_name": "MadgeHooks", "coordinates": {"type": "Point", "coordinates": [-0.04451568, 51.42736639]}},{"text": "\u0627\u0644\u0644\u0647 \u064a\u0631\u062d\u0645\u0647 \u0648\u064a\u0633\u0643\u0646 \u0631\u0648\u062d\u0647 \u0627\u0644\u062c\u0646\u0647 \u0648\u0627\u0644\u0645\u0633\u0644\u0645\u064a\u0646 \u0623\u062c\u0645\u0639\u064a\u0646 http://t.co/3iuAELfOGv", "created_at": "2013-04-13T17:51:06", "screen_name": "alenazi_bader", "coordinates": {"type": "Point", "coordinates": [46.8123261, 24.7090024]}},{"text": "#FoodcampQc @martin_juneau veut parler de peau. Miam. http://t.co/MZcMjAoPt3", "created_at": "2013-04-13T17:51:07", "screen_name": "copaco", "coordinates": {"type": "Point", "coordinates": [-71.21540361, 46.80605632]}},{"text": "Sekali aku dapat aku tak akn melepaskanmu. Tetapi sekali aku melepaskanmu aku tak akan mencarimu lagi...", "created_at": "2013-04-13T17:51:11", "screen_name": "amyrarreyz", "coordinates": {"type": "Point", "coordinates": [103.9109334, 1.4925106]}},{"text": "@InnaNikitenko \u0438 \u0433\u043e\u043b\u043e\u0441 \u0443 \u043d\u0435\u0433\u043e \u043a\u043e\u043d\u0447\u0435\u043d\u044b\u0439, \u0438 \u0444\u044d\u0439\u0441 \u043f\u0440\u043e\u0442\u0438\u0432\u043d\u044b\u0439.", "created_at": "2013-04-13T17:51:12", "screen_name": "InnaNikitenko", "coordinates": {"type": "Point", "coordinates": [87.0356195, 53.7439775]}},{"text": "@smgekrts saksuka ,acili ezme,haydari , liste uzun :)))", "created_at": "2013-04-13T17:51:13", "screen_name": "Adogdu", "coordinates": {"type": "Point", "coordinates": [16.39216216, 48.19053689]}},{"text": "Uhhhhhhh uhhhhhhhhhhhhhh", "created_at": "2013-04-13T17:51:13", "screen_name": "awkwardjoanna__", "coordinates": {"type": "Point", "coordinates": [-83.45726291, 39.89024699]}},{"text": "Minha mae podia chegar rapido aqi em casa", "created_at": "2013-04-13T17:51:17", "screen_name": "Katha_silva", "coordinates": {"type": "Point", "coordinates": [-45.5549727, -23.0259405]}},{"text": "- noooooo :/ y'all were too cute thoo \ud83d\udc94", "created_at": "2013-04-13T17:51:17", "screen_name": "__Osobeautiful", "coordinates": {"type": "Point", "coordinates": [-95.2023401, 29.68572986]}},{"text": "Estamos tan agustico http://t.co/rEBtH2w7dq", "created_at": "2013-04-13T17:51:18", "screen_name": "unlovablesss", "coordinates": {"type": "Point", "coordinates": [-73.60042683, 45.52420281]}},{"text": "What was particularly nice was how fast it seemed to fly by. Good stuff. And the late reveal, too. :) #DoctorWho", "created_at": "2013-04-13T17:51:21", "screen_name": "bromley001", "coordinates": {"type": "Point", "coordinates": [-1.3491171, 53.3298306]}},{"text": "@beAfuckingA_ SABE PELO MENOS  Q SIGNIFCA CARALHO?", "created_at": "2013-04-13T17:51:22", "screen_name": "Damaruporra", "coordinates": {"type": "Point", "coordinates": [-59.9979395, -3.0308138]}},{"text": "@Zoehinsh957 enjoy yourselfs! Drink loads! Xx", "created_at": "2013-04-13T17:51:24", "screen_name": "Wendh1980", "coordinates": {"type": "Point", "coordinates": [-0.76385599, 50.83957858]}},{"text": "\u200f\u0631\u0628\u064a \u0627\u0646\u064a \u0627\u062d\u0628\u0647 \u0648\u0627\u062f\u0639\u064a \u0644\u0647 \u062f\u0648\u0645\u0627 \u0641\u064a \u0633\u062c\u0648\u062f\u064a \u0641\u0623\u062d\u0641\u0638\u0647 \u0628\u0639\u064a\u0646\u0643 \u0627\u0644\u062a\u064a \u0644\u0627\u062a\u0646\u0627\u0645 \u0648\u0644\u0627\u062a\u062d\u0631\u0645\u0647 \u2665\u0627\u0644\u0633\u0639\u0627\u062f\u0647 ...", "created_at": "2013-04-13T17:51:24", "screen_name": "Soso_am_112", "coordinates": {"type": "Point", "coordinates": [39.5303033, 24.4493096]}},{"text": "Bout to judge the hell out of some tacos! #Yuma #YumaTacoFestival (@ Desert Sun Stadium w/ 2 others) [pic]: http://t.co/BW5rqEI2RR", "created_at": "2013-04-13T17:51:25", "screen_name": "JonnyAwesum", "coordinates": {"type": "Point", "coordinates": [-114.6360869, 32.66278057]}},{"text": "They say there's many more in the sea, but rather than go fish I play solitaire.", "created_at": "2013-04-13T17:51:25", "screen_name": "jacobdezarn", "coordinates": {"type": "Point", "coordinates": [-149.90400603, 61.19406378]}},{"text": "@wez2407 lost interest in it now. It's a fix!", "created_at": "2013-04-13T17:51:26", "screen_name": "MatB_STFC69", "coordinates": {"type": "Point", "coordinates": [-1.74763656, 51.57779501]}},{"text": "@_VirgoGal Sorry Call Back !", "created_at": "2013-04-13T17:51:26", "screen_name": "SmokinqParadise", "coordinates": {"type": "Point", "coordinates": [-74.49636427, 40.42436831]}},{"text": "@L_ElyB Arriver\u00f2 in un #\u26a1, cos\u00ec le #crepe le faccio venire io\ud83d\ude45!", "created_at": "2013-04-13T17:51:29", "screen_name": "frappa38", "coordinates": {"type": "Point", "coordinates": [11.687884, 44.36751653]}},{"text": "Este we tambi\u00e9n se me viene a poner enfrente!!! No tengo mi espejo como referencia =( no puedo hacer hombro =(", "created_at": "2013-04-13T17:51:32", "screen_name": "Andyronzon", "coordinates": {"type": "Point", "coordinates": [-99.16784369, 19.42600297]}},{"text": "Chuva sai daquiiii", "created_at": "2013-04-13T17:51:32", "screen_name": "badgallary", "coordinates": {"type": "Point", "coordinates": [-47.8934926, -21.9893949]}},{"text": "God damn it", "created_at": "2013-04-13T17:51:32", "screen_name": "abiharrisxx", "coordinates": {"type": "Point", "coordinates": [-1.08902373, 52.44789139]}},{"text": "@flaviacdefarias  s2 @ Arapiraca - AL http://t.co/3SoP6TlrgT", "created_at": "2013-04-13T17:51:34", "screen_name": "rafaelcorreia09", "coordinates": {"type": "Point", "coordinates": [-36.65796493, -9.75857729]}},{"text": "Saturday... Rain... Movies pong drinking music and a good time. #clevelandweather #stillpartying #round2", "created_at": "2013-04-13T17:51:38", "screen_name": "Shannimal21", "coordinates": {"type": "Point", "coordinates": [-81.7499007, 41.43349834]}},{"text": "You see that dream I had last night...... Time to go India", "created_at": "2013-04-13T17:51:39", "screen_name": "Naima_Kooti", "coordinates": {"type": "Point", "coordinates": [-61.4222, 10.42543]}},{"text": "Watching the voice \ud83d\ude0e", "created_at": "2013-04-13T17:51:42", "screen_name": "RaayMysterio", "coordinates": {"type": "Point", "coordinates": [-0.12926833, 51.46476537]}},{"text": "@RubenYonkers BIG LOL", "created_at": "2013-04-13T17:51:43", "screen_name": "HafsaBouw", "coordinates": {"type": "Point", "coordinates": [2.02488953, 49.02069663]}},{"text": "Goodbye Sun.... @ chez my Nany http://t.co/GavBIzoIKW", "created_at": "2013-04-13T17:51:43", "screen_name": "SweetBBJ", "coordinates": {"type": "Point", "coordinates": [6.5971464, 46.5386903]}},{"text": "feel the pain until it hurts no more.", "created_at": "2013-04-13T17:51:45", "screen_name": "photo__freak", "coordinates": {"type": "Point", "coordinates": [3.9335233, 7.430312]}},{"text": "@onelavigne estou in love com a gorda  jaja vo pedir p ela colocar pq adoro sambar na kra dazinimiga hahahahahah", "created_at": "2013-04-13T17:51:45", "screen_name": "livingforamona", "coordinates": {"type": "Point", "coordinates": [-34.8598786, -7.9896074]}},{"text": "Off to get my hurr did #promprep", "created_at": "2013-04-13T17:51:46", "screen_name": "RachelBenfield", "coordinates": {"type": "Point", "coordinates": [-82.36256079, 28.58569802]}},{"text": "Time to get so drunk it hurts. Work hard play hard.", "created_at": "2013-04-13T17:51:48", "screen_name": "leonorabaldus", "coordinates": {"type": "Point", "coordinates": [-0.65741475, 53.55615171]}},{"text": "@Kattine ese es el secreto.", "created_at": "2013-04-13T17:51:50", "screen_name": "lodoco", "coordinates": {"type": "Point", "coordinates": [-106.09325251, 28.72689434]}},{"text": "@SamJBush get you!", "created_at": "2013-04-13T17:51:50", "screen_name": "BattyClatter", "coordinates": {"type": "Point", "coordinates": [-0.4301778, 52.0251919]}},{"text": "@McArdleBen was at work! You've not justified your description of the panda", "created_at": "2013-04-13T17:51:51", "screen_name": "JoeFlynn118", "coordinates": {"type": "Point", "coordinates": [1.0782294, 52.5163323]}},{"text": "Passionfruit caipiroska for lunch. Let's get this party started.", "created_at": "2013-04-13T17:51:52", "screen_name": "Polly4L", "coordinates": {"type": "Point", "coordinates": [-73.95037018, 40.71819503]}},{"text": "Bobok ahh...", "created_at": "2013-04-13T17:51:53", "screen_name": "dhestiyaa", "coordinates": {"type": "Point", "coordinates": [106.6511505, -6.1881461]}},{"text": "Sampai di purwokerto juga, take to rest (\u02c7O\u02c7\u2019!l)\u200b\u200e", "created_at": "2013-04-13T17:51:53", "screen_name": "Putrymerry", "coordinates": {"type": "Point", "coordinates": [109.17926, -7.53799]}},{"text": "Wow. Well that was honestly the worst episode of #DoctorWho I've ever seen. Absolutely shit.", "created_at": "2013-04-13T17:51:54", "screen_name": "RoisinRamone", "coordinates": {"type": "Point", "coordinates": [-8.8383936, 53.3975284]}},{"text": "Je meurs de faim.", "created_at": "2013-04-13T17:51:55", "screen_name": "Laubainee", "coordinates": {"type": "Point", "coordinates": [2.3716537, 48.7631742]}},{"text": "Why do I keep running away from the truth, all that I could think about is you~~ #NowPlaying", "created_at": "2013-04-13T17:51:56", "screen_name": "ImOngYiXiang", "coordinates": {"type": "Point", "coordinates": [103.9840593, 1.38932596]}},{"text": "\u201c@PickupIine: http://t.co/k5bMCZCzzX\u201d @shaquilleryan   Can you use this sometime please!!!", "created_at": "2013-04-13T17:51:56", "screen_name": "aszucs13", "coordinates": {"type": "Point", "coordinates": [-78.93918333, 38.30761886]}},{"text": "ai lindo", "created_at": "2013-04-13T17:51:58", "screen_name": "_stefanietoledo", "coordinates": {"type": "Point", "coordinates": [-47.3899338, -22.5818422]}},{"text": "Here I am getting swabbed at Joe Solimine event - I hope to be a bone marrow donor - come down &amp; get\u2026 http://t.co/fXKpCaz149", "created_at": "2013-04-13T17:52:00", "screen_name": "JimMaisano", "coordinates": {"type": "Point", "coordinates": [-73.80102413, 40.89531655]}},{"text": "http://t.co/w4f1Yfree8\n\u041d\u0410\u041f\u0418\u0428\u0418. \u041c\u041d\u0415. \u0412\u041e\u041f\u0420\u041e\u0421.\n\u041c\u041d\u0415. \u0421\u041a\u0423\u0427\u041d\u041e. :D", "created_at": "2013-04-13T17:52:01", "screen_name": "believeeindream", "coordinates": {"type": "Point", "coordinates": [26.15572021, 49.54259437]}},{"text": "\u0644\u0627 \u0646\u0631\u064a\u062f \u0627\u0644\u0643\u0645\u0627\u0644 \u0648\u0644\u0643\u0646 \u0646\u0631\u064a\u062f \u0642\u0644\u0648\u0628\u0627\u064b \u062a\u0635\u062d\u0648\u0627 \u0639\u0646\u062f \u0627\u0644\u062e\u0637\u0623 ..", "created_at": "2013-04-13T17:52:01", "screen_name": "maby3yrk", "coordinates": {"type": "Point", "coordinates": [45.07244485, 23.77778892]}},{"text": "Should I get these drums? Y/N? http://t.co/QuwJwduM5t", "created_at": "2013-04-13T17:52:01", "screen_name": "smikex13", "coordinates": {"type": "Point", "coordinates": [-83.11572411, 42.46897356]}},{"text": "@MeTieneHarta_ nunca mi amor *.*", "created_at": "2013-04-13T17:52:03", "screen_name": "LovingBananas_", "coordinates": {"type": "Point", "coordinates": [-69.8657681, 18.48063309]}},{"text": "\u0411\u0440\u0430\u0442\u0435\u0446, @r_agliullin \ud83d\udc6c @ \u0425\u0423\u041c\u041e (Chaihona&amp;Lounge Bar) http://t.co/J9rjpXdJj8", "created_at": "2013-04-13T17:52:05", "screen_name": "ArturKhayrullin", "coordinates": {"type": "Point", "coordinates": [49.10681254, 55.79054541]}},{"text": "Traffic jam time #nononono #boring #m25 #move", "created_at": "2013-04-13T17:52:05", "screen_name": "sashh123", "coordinates": {"type": "Point", "coordinates": [0.47786, 51.16103]}},{"text": "\u201c@Potrwitter: @FerSanchef jajaja acabo de vivir un momento #ahaa\u201d// todo te sorprende igual? He vivido 10 momentos ahaaaaaa jajajaja", "created_at": "2013-04-13T17:52:09", "screen_name": "FerSanchef", "coordinates": {"type": "Point", "coordinates": [-99.25834056, 19.3600309]}},{"text": "@Herrkilman f\u00f6r att du \u00e4r fr\u00e5n Grums.", "created_at": "2013-04-13T17:52:10", "screen_name": "JMOlander", "coordinates": {"type": "Point", "coordinates": [11.89503329, 57.71220711]}},{"text": "@maral_45 @ecmelaybige @semra571 @ahvali_ask Hay\u0131rl\u0131 Ak\u015famlar Canlar\u0131m Benim :))", "created_at": "2013-04-13T17:52:12", "screen_name": "Leyyanur", "coordinates": {"type": "Point", "coordinates": [6.95889257, 50.96888862]}},{"text": "@caralhodju manda amoor", "created_at": "2013-04-13T17:52:12", "screen_name": "caralhopam", "coordinates": {"type": "Point", "coordinates": [-48.0666349, -15.82377612]}},{"text": "I'm at Tap and Parlour (Washington D.C., DC) w/ 5 others http://t.co/hKA2foTxcu", "created_at": "2013-04-13T17:52:21", "screen_name": "donnydimarco", "coordinates": {"type": "Point", "coordinates": [-77.02696, 38.917054]}},{"text": "To congelando meuu", "created_at": "2013-04-13T17:52:26", "screen_name": "taynardelazeri", "coordinates": {"type": "Point", "coordinates": [-51.2238115, -30.1624289]}},{"text": "Sdds dessa m\u00fasica :(", "created_at": "2013-04-13T17:52:26", "screen_name": "gaabi_desouza", "coordinates": {"type": "Point", "coordinates": [-47.0573071, -22.8983484]}},{"text": "@karaisabel Hala ey", "created_at": "2013-04-13T17:52:26", "screen_name": "DongQuixote", "coordinates": {"type": "Point", "coordinates": [123.8096856, 10.242918]}},{"text": "Odeio, ODEIO, o-d-e-i-o  que me copiem!!!!!!!!!!!!", "created_at": "2013-04-13T17:52:26", "screen_name": "MariLavoisier15", "coordinates": {"type": "Point", "coordinates": [-44.4352369, -18.7609603]}},{"text": "\u201c@WolfpackAlan: If your friends aren't making fun of you, they're not really your friends\u201d @Angie_d10 @lynzjean it all makes sense now.", "created_at": "2013-04-13T17:52:26", "screen_name": "BobbeaJune", "coordinates": {"type": "Point", "coordinates": [-87.55912227, 37.99397407]}},{"text": "Ora enek..wes turu le. RT @suck_tea: Wedok e gk ono? RT\"@Vigillogus: Boh,aku sama pide &amp; hiroy ni RT @suck_tea: Ikut", "created_at": "2013-04-13T17:52:27", "screen_name": "Vigillogus", "coordinates": {"type": "Point", "coordinates": [112.5982613, -7.9380768]}},{"text": "@jimbologos @endhunt selamat liburan di kota kuala lumpur..jgn sampai ke bedroom ya pak..pastikan ke kamar hotel aja", "created_at": "2013-04-13T17:52:28", "screen_name": "Allbiirr", "coordinates": {"type": "Point", "coordinates": [101.63977607, 3.07619916]}},{"text": "I'm at Kantor Dekanat FK UII (Sleman, yogyakarta) http://t.co/4gPLy7J7J8", "created_at": "2013-04-13T17:52:29", "screen_name": "DymasBee", "coordinates": {"type": "Point", "coordinates": [110.419542, -7.683552]}},{"text": "I'm at Comunidade Nossa Senhora de Guadalupe (Parauapebas, para) http://t.co/AEEvtYMS3Y", "created_at": "2013-04-13T17:52:31", "screen_name": "wandersonolyver", "coordinates": {"type": "Point", "coordinates": [-49.91035129, -6.08226496]}},{"text": "Nail time (@ Mall At Marathon) http://t.co/lUD94dP45X", "created_at": "2013-04-13T17:52:34", "screen_name": "PerfectlyMadeK", "coordinates": {"type": "Point", "coordinates": [-77.32814902, 25.05201975]}},{"text": "@smthy77 b?", "created_at": "2013-04-13T17:52:35", "screen_name": "SilkBackBadboy", "coordinates": {"type": "Point", "coordinates": [0.38824741, 52.60756971]}},{"text": "@golkham tas enculado jajajajaja solo en twitter publicas eso", "created_at": "2013-04-13T17:52:36", "screen_name": "danymeza6", "coordinates": {"type": "Point", "coordinates": [-87.07615296, 14.40970185]}},{"text": "@Ch_Serrano ?", "created_at": "2013-04-13T17:52:36", "screen_name": "QuimBonet", "coordinates": {"type": "Point", "coordinates": [2.16494163, 41.38557759]}},{"text": "En Russie ils font des \u00e9glises parachutables pour l'arm\u00e9e..", "created_at": "2013-04-13T17:52:37", "screen_name": "MaximeLfg", "coordinates": {"type": "Point", "coordinates": [1.5193619, 43.8403734]}},{"text": "\u0411\u0435\u0437\u044b\u0441\u0445\u043e\u0434\u043d\u043e\u0441\u0442\u044c http://t.co/y6UKoOAAEl", "created_at": "2013-04-13T17:52:39", "screen_name": "KatyaVasileva", "coordinates": {"type": "Point", "coordinates": [39.61848653, 47.22591401]}},{"text": "I hate how it feels like everyone else is so much more important to you than I am.\"", "created_at": "2013-04-13T17:52:45", "screen_name": "aaliyah_payne", "coordinates": {"type": "Point", "coordinates": [-86.4396457, 42.0838872]}},{"text": "Franchement il est beau", "created_at": "2013-04-13T17:52:47", "screen_name": "FarahFatna", "coordinates": {"type": "Point", "coordinates": [2.17535659, 48.88992694]}},{"text": "Ya vineee.!!!! (@ Casa Andy/David) http://t.co/Wjxchqpmrv", "created_at": "2013-04-13T17:52:49", "screen_name": "oortegab", "coordinates": {"type": "Point", "coordinates": [-70.6633175, -33.55034915]}},{"text": "\ud83c\udfb6 kiss me, kiss me tell me you love me \ud83c\udfb5\ud83d\ude18\ud83d\udc8b #13 #day #kiss #me #love #heart #happy #instagood #nofilter\u2026 http://t.co/tsZhTEM2Po", "created_at": "2013-04-13T17:52:49", "screen_name": "_deysemelo", "coordinates": {"type": "Point", "coordinates": [-60.07666667, -3.04916667]}},{"text": "amboii malam2 rancakk , tak berparty ke.? haha\"@AhsanLee: @rarasahudin oppssss terlebihhh syudahhhhh . Ha3\"", "created_at": "2013-04-13T17:52:52", "screen_name": "rarasahudin", "coordinates": {"type": "Point", "coordinates": [101.0815087, 4.6332812]}},{"text": "Bsk y syg:*RT @nadianahdi: @FadlyAddicted &lt;&lt; pengen dia ada disini :( http://t.co/HOH3OOi3h2", "created_at": "2013-04-13T17:52:58", "screen_name": "FadlyAddicted", "coordinates": {"type": "Point", "coordinates": [106.69116804, -6.24996203]}},{"text": "Los amoo , nunca me falten \u2665 @RocioCeeeeleste @Riverpasionah http://t.co/gLcICkm99W", "created_at": "2013-04-13T17:52:58", "screen_name": "_LaPricha", "coordinates": {"type": "Point", "coordinates": [-58.50473, -34.62435]}},{"text": "Juliana: are you crying?\nJohn: no it's just my awesomeness seeping out", "created_at": "2013-04-13T17:53:00", "screen_name": "FrencescaMG", "coordinates": {"type": "Point", "coordinates": [-76.13593562, 43.16323067]}},{"text": "@TubaAkcakus spora ilgi \u00fcst d\u00fczeyde ama galatasaray olunca bu ilginin oda\u011f\u0131 o olmadi i\u015fte :)", "created_at": "2013-04-13T17:53:00", "screen_name": "birderdimvar_", "coordinates": {"type": "Point", "coordinates": [28.9936786, 41.0735933]}},{"text": "@BAPchanchan_Bth \u0e40\u0e2b\u0e21\u0e37\u0e2d\u0e19\u0e41\u0e0b\u0e07\u0e40\u0e25\u0e22\u0e22\u0e22", "created_at": "2013-04-13T17:53:00", "screen_name": "iampraewseob", "coordinates": {"type": "Point", "coordinates": [100.63290838, 13.68189586]}},{"text": "I NEED A HONEY GIRLFRIEND TO CHILL WITH EVERY WEEKEND", "created_at": "2013-04-13T17:53:01", "screen_name": "SirTrezzy", "coordinates": {"type": "Point", "coordinates": [-75.39601284, 40.60470559]}},{"text": "\u2220\u203b", "created_at": "2013-04-13T17:53:03", "screen_name": "retnopraptini33", "coordinates": {"type": "Point", "coordinates": [111.4690944, 0.040805]}},{"text": "Super into French press these days #GettingCaffeinated http://t.co/GOW399dKef", "created_at": "2013-04-13T17:53:04", "screen_name": "ernesthon", "coordinates": {"type": "Point", "coordinates": [-114.05396868, 51.04172784]}},{"text": "\"morrissey\" @ Kunstschule Wandsbek Bremen http://t.co/i4yBYFBpFB", "created_at": "2013-04-13T17:53:05", "screen_name": "pussicola666", "coordinates": {"type": "Point", "coordinates": [8.82010756, 53.0805439]}},{"text": "Where is my parcel though.", "created_at": "2013-04-13T17:53:09", "screen_name": "sianlucydavies", "coordinates": {"type": "Point", "coordinates": [-1.88431552, 52.37798224]}},{"text": "@dcabellor la juventud de coraz\u00f3n vehementemente revolucionario esta resuelta a defender el proyecto de la patria que nos dejo el comandante", "created_at": "2013-04-13T17:53:11", "screen_name": "acristina_manzo", "coordinates": {"type": "Point", "coordinates": [-67.0362491, 10.35617882]}},{"text": "I have so many good films on my iPod that I might as well kiss goodbye to time spent productively in the library", "created_at": "2013-04-13T17:53:11", "screen_name": "penderzz", "coordinates": {"type": "Point", "coordinates": [-2.17009342, 52.50225115]}},{"text": "@XanderMalde216 why so funny!", "created_at": "2013-04-13T17:53:12", "screen_name": "s_kubez5", "coordinates": {"type": "Point", "coordinates": [-81.94507521, 41.4256267]}},{"text": "@Pedant_Bot good looking out my nigguh", "created_at": "2013-04-13T17:53:13", "screen_name": "hectr03", "coordinates": {"type": "Point", "coordinates": [-118.03263453, 34.01927867]}},{"text": "lowest point of the season. Park Ji-Sung press conference. sums up everything the club got wrong.  #QPR", "created_at": "2013-04-13T17:53:13", "screen_name": "gleni1977", "coordinates": {"type": "Point", "coordinates": [-0.5763961, 51.4270218]}},{"text": "@AdonaiAlvaReez @VictorLanestosa @FrancciscoHM   y de mi? Nada extra\u00f1as\"! U-u perra jajaja", "created_at": "2013-04-13T17:53:13", "screen_name": "SritaGomez_", "coordinates": {"type": "Point", "coordinates": [-93.3805185, 17.9919521]}},{"text": "Chef BoyRDee in a can doesn't taste as good when you aren't living in a dorm.  #AlsoTooOldForIt", "created_at": "2013-04-13T17:53:13", "screen_name": "llivesay", "coordinates": {"type": "Point", "coordinates": [-97.2823657, 33.035586]}},{"text": ". #mixatac . (@ Friche la Belle de Mai - @friche_bdm) http://t.co/8jC7LHqMA7", "created_at": "2013-04-13T17:53:14", "screen_name": "quatrevousmane", "coordinates": {"type": "Point", "coordinates": [5.39044619, 43.30981565]}},{"text": "@Catharsis mon or tues?", "created_at": "2013-04-13T17:53:14", "screen_name": "mauricetrudell", "coordinates": {"type": "Point", "coordinates": [-122.25993956, 37.75926944]}},{"text": "Bora l\u00e1 daqui a pouco tem @pegada_deluxo na Tv Di\u00e1ria @ Tv Di\u00e1ria http://t.co/7lSKjX7y96", "created_at": "2013-04-13T17:53:15", "screen_name": "CarolzinhaFi", "coordinates": {"type": "Point", "coordinates": [-38.5029601, -3.7453825]}},{"text": "CMON WIGAN GET IN THERE!!!!! #LATICS", "created_at": "2013-04-13T17:53:15", "screen_name": "Jamiemc04", "coordinates": {"type": "Point", "coordinates": [-4.2199601, 55.8563098]}},{"text": "@Samir_Ahmed7 YEAH xD walahy w tel3naa fahmeen 7agaa ! XD YAY YOU .. 3amlt eh fy dars el drsat, am depending on myself *nerd* w haru7 morg3a", "created_at": "2013-04-13T17:53:16", "screen_name": "FarrahNaga", "coordinates": {"type": "Point", "coordinates": [29.9658, 31.246]}},{"text": "@esiinaydiin tamam", "created_at": "2013-04-13T17:53:17", "screen_name": "YagmurDernek", "coordinates": {"type": "Point", "coordinates": [28.59686324, 41.08252457]}},{"text": "@sophiehollandox weyyy nahh x", "created_at": "2013-04-13T17:53:19", "screen_name": "AshleighJ96", "coordinates": {"type": "Point", "coordinates": [-1.63786026, 54.93656391]}},{"text": "Heartbreaker here, love these trucks! #ford #f100 #legends #dragandrodrun #sealytx #pickup @ Lonestar\u2026 http://t.co/mLJeTnUyyx", "created_at": "2013-04-13T17:53:19", "screen_name": "radleyhardy", "coordinates": {"type": "Point", "coordinates": [-96.28319198, 29.74955183]}},{"text": "This Maloney #10 Wigan what a player", "created_at": "2013-04-13T17:53:19", "screen_name": "shakeswebster", "coordinates": {"type": "Point", "coordinates": [28.09244, -25.64736]}},{"text": "@Kerry_Lou_Lou did u watch doctor who???", "created_at": "2013-04-13T17:53:20", "screen_name": "immamabetty", "coordinates": {"type": "Point", "coordinates": [-3.03463402, 53.79646878]}},{"text": "@UmitCanGonen buyurun efendim beklerim tabi ki :)", "created_at": "2013-04-13T17:53:20", "screen_name": "damlaselenozmen", "coordinates": {"type": "Point", "coordinates": [29.03226452, 40.99859792]}},{"text": "Mani-pedi with my boo! (@ Noodles &amp; Company w/ 2 others) http://t.co/EERQ5CU1IA", "created_at": "2013-04-13T17:53:20", "screen_name": "SouthPawSinger", "coordinates": {"type": "Point", "coordinates": [-86.8132782, 36.10837484]}},{"text": "Serious question: is there a way to get voicemails onto social media? @TheKinasty @borealis9 #gobblegobble", "created_at": "2013-04-13T17:53:21", "screen_name": "Johnatron4000", "coordinates": {"type": "Point", "coordinates": [-86.24313863, 41.70096057]}},{"text": "Oh hey see yaaaa. \ud83d\udc4b\u270c", "created_at": "2013-04-13T17:53:21", "screen_name": "schluchmydick", "coordinates": {"type": "Point", "coordinates": [-82.70088196, 41.43173981]}},{"text": "@MelisCaneer aboo gecmi\u015f olsunn :D buzz koyy", "created_at": "2013-04-13T17:53:25", "screen_name": "onur_arac", "coordinates": {"type": "Point", "coordinates": [27.00433087, 38.39597543]}},{"text": "Clich\u00e9s are clich\u00e9s for a reason, they're pretty accurate and meaningful", "created_at": "2013-04-13T17:53:25", "screen_name": "Kilpatrick24", "coordinates": {"type": "Point", "coordinates": [-81.50767896, 41.07805579]}},{"text": "If the officials decision involved anyone other than Tiger, it would be final... @NickFaldo006 keep calm, and hush yourself please", "created_at": "2013-04-13T17:53:27", "screen_name": "JoshJBowerman", "coordinates": {"type": "Point", "coordinates": [-2.11069632, 50.68498869]}},{"text": "I'm at Bar Do Val - Ponto Da Feijoada E Mocoto http://t.co/Rpg4sTk6gS", "created_at": "2013-04-13T17:53:31", "screen_name": "CarlosOmark", "coordinates": {"type": "Point", "coordinates": [-40.51510134, -11.18086112]}},{"text": "My bisssh &lt;3", "created_at": "2013-04-13T17:53:32", "screen_name": "_CelesteDoll", "coordinates": {"type": "Point", "coordinates": [-118.1896978, 33.7742341]}},{"text": "I literally can't function", "created_at": "2013-04-13T17:53:34", "screen_name": "JennnHayes", "coordinates": {"type": "Point", "coordinates": [-82.10253462, 39.33138757]}},{"text": "I'm at IJspaleis (Driehuis, Noord-Holland) http://t.co/sCmyd0f4fU", "created_at": "2013-04-13T17:53:38", "screen_name": "BjornL2603", "coordinates": {"type": "Point", "coordinates": [4.637786, 52.448968]}},{"text": "Headache like a mutha", "created_at": "2013-04-13T17:53:38", "screen_name": "TayLaChance", "coordinates": {"type": "Point", "coordinates": [-70.99764107, 42.06069873]}},{"text": "Quisiera ser tan trolleadora de Twitteros pero no va con mi estilo...... Caray!!!!!", "created_at": "2013-04-13T17:53:39", "screen_name": "vickymaxichica", "coordinates": {"type": "Point", "coordinates": [-103.31823354, 20.67170306]}},{"text": "Casually going for a wee whilst facetiming @Vintage_Cookie \ud83d\udc4d\ud83d\udc4d", "created_at": "2013-04-13T17:53:39", "screen_name": "CatherineLouu", "coordinates": {"type": "Point", "coordinates": [0.74765779, 51.35857155]}},{"text": "MySQL bootcamp! (@ School of Communication - @univmiami) http://t.co/TJdEtZVUvG", "created_at": "2013-04-13T17:53:39", "screen_name": "rschallom", "coordinates": {"type": "Point", "coordinates": [-80.27551174, 25.72266828]}},{"text": "@CharJPrice my yard !! Come mine ASAP", "created_at": "2013-04-13T17:53:41", "screen_name": "Shyellephillips", "coordinates": {"type": "Point", "coordinates": [-0.44953623, 51.75637999]}},{"text": "@joeyp91 \ud83d\udcaa\ud83d\ude4a", "created_at": "2013-04-13T17:53:42", "screen_name": "mattkidney97", "coordinates": {"type": "Point", "coordinates": [-74.10634333, 40.37884321]}},{"text": "Es increible como en tan poco tiempo cambia todo !!!", "created_at": "2013-04-13T17:53:45", "screen_name": "chinoxville", "coordinates": {"type": "Point", "coordinates": [-90.5559192, 14.6308359]}},{"text": "wackiegwiyomikatuk and charging while waiting for the girls #throughthickandthin @ Mr. Bean Cafe http://t.co/9gBwYyKySU", "created_at": "2013-04-13T17:53:47", "screen_name": "ItsJanboy", "coordinates": {"type": "Point", "coordinates": [122.07140923, 6.90862947]}},{"text": "Me schatjes @ZoeRoest @loesvanpro  x http://t.co/xREbM2Vk6G", "created_at": "2013-04-13T17:53:47", "screen_name": "iKHEETMELANiEXo", "coordinates": {"type": "Point", "coordinates": [4.74797766, 52.0140439]}},{"text": "@CarlRoney @Titch_avfc do you recon you can get those in pug size?!", "created_at": "2013-04-13T17:53:48", "screen_name": "Lewjt", "coordinates": {"type": "Point", "coordinates": [-1.9614791, 52.622584]}},{"text": "Match tranquil ! Ambiance de malade ! @MATUIDIBlaise Un homme en or !", "created_at": "2013-04-13T17:53:48", "screen_name": "King_Mohaaa", "coordinates": {"type": "Point", "coordinates": [4.09273397, 48.31883241]}},{"text": "um carinha ta olhando pra bunda da minha mae e eu fiquei encarando ele e ele saiu q nojo mano", "created_at": "2013-04-13T17:53:49", "screen_name": "rcksperry", "coordinates": {"type": "Point", "coordinates": [-51.1444074, -29.7720079]}},{"text": "Ai quih badaluh esse sabaduh,vou assistir minha divah XUxah xd", "created_at": "2013-04-13T17:53:51", "screen_name": "chatopracrlh", "coordinates": {"type": "Point", "coordinates": [-46.2159398, -23.5616236]}},{"text": "\u0410 \u0443 \u043d\u0430\u0441 \u0434\u0435\u0432\u0438\u0447\u043d\u0438\u043a! \ud83d\udc6f\ud83d\ude3b", "created_at": "2013-04-13T17:53:52", "screen_name": "SuperWife1010", "coordinates": {"type": "Point", "coordinates": [56.29992268, 58.10594805]}},{"text": "pena q eh lesbica", "created_at": "2013-04-13T17:53:53", "screen_name": "gotmydrink", "coordinates": {"type": "Point", "coordinates": [-34.9295603, -8.1860478]}},{"text": "@Luimcv Por favor", "created_at": "2013-04-13T17:53:53", "screen_name": "valeriamlp", "coordinates": {"type": "Point", "coordinates": [-66.0700816, 18.36008264]}},{"text": "R.I.P to my big dogs lets pray!", "created_at": "2013-04-13T17:53:55", "screen_name": "Quite_Deadly", "coordinates": {"type": "Point", "coordinates": [-84.43229172, 33.103726]}},{"text": "I always have good hair days when idgaf how my hair looks #why", "created_at": "2013-04-13T17:53:55", "screen_name": "SydneeWolfe", "coordinates": {"type": "Point", "coordinates": [-76.42580126, 40.3128555]}},{"text": "Tiger lost all respect in my eyes today. Tiger had a chance to do the right thing and make a statement, I'm with @chambleebrandel", "created_at": "2013-04-13T17:53:59", "screen_name": "claymslay", "coordinates": {"type": "Point", "coordinates": [-83.64641363, 41.38017164]}},{"text": "I'm at @COMRARD (\u65b0\u6f5f\u5e02\u4e2d\u592e\u533a, \u65b0\u6f5f\u770c) http://t.co/zhiFdOAWPV", "created_at": "2013-04-13T17:53:59", "screen_name": "matumotomatu", "coordinates": {"type": "Point", "coordinates": [139.0449563, 37.92472919]}},{"text": "JAH chegamos ao povo. (@ Pra\u00e7a Victor Civita - @pracavc) http://t.co/DL4sZOjgJb", "created_at": "2013-04-13T17:54:00", "screen_name": "acastagnolii", "coordinates": {"type": "Point", "coordinates": [-46.70158215, -23.5642786]}},{"text": "\u201c@CondescendTorts: Phil Kessel and Amanda Kessel.\n\nBest sisters in hockey?\u201d @chase_face_", "created_at": "2013-04-13T17:54:03", "screen_name": "english_mitch", "coordinates": {"type": "Point", "coordinates": [-96.10413565, 41.27848591]}},{"text": "@yelyahwilliams Some things just, some things just make sense and one of those is you and I #paramorenewalbum", "created_at": "2013-04-13T17:54:05", "screen_name": "Real_Lucas_Lao", "coordinates": {"type": "Point", "coordinates": [11.84010158, 42.03508151]}},{"text": "http://t.co/VRYk6A9Xnb pra quem quiser ver esse e o link de eu e a @bru_nobrega nos conhecendo", "created_at": "2013-04-13T17:54:06", "screen_name": "Tata_Dutraa", "coordinates": {"type": "Point", "coordinates": [-43.97057106, -20.08927126]}},{"text": "Waiting for the rest of the #GLAMwiki crew (@ Kokeb Ethiopian Cuisine) http://t.co/yGSXe2h5kw", "created_at": "2013-04-13T17:54:06", "screen_name": "pigsonthewing", "coordinates": {"type": "Point", "coordinates": [-0.115822, 51.546685]}},{"text": "\u0635\u0648\u0631\u0629 \u0645\u062f\u0647\u0634\u0629 \u0644\u0633\u062d\u0627\u0628\u0629 \u0623\u0634\u0628\u0647 \u0628\u062c\u0628\u0644            \n\u0627\u0644\u062a\u0642\u0637\u062a \u0642\u0628\u0627\u0644\u0629 \u0634\u0627\u0637\u0626 \u0628\u062d\u064a\u0631\u0629             \n   \u0645\u064a\u0634\u064a\u063a\u0627\u0646 \u0641\u064a \u0623\u0645\u0631\u064a\u0643\u0627 http://t.co/XoUTq2xvwv", "created_at": "2013-04-13T17:54:06", "screen_name": "DAlsh8a", "coordinates": {"type": "Point", "coordinates": [47.2678359, 24.1221668]}},{"text": "almo\u00e7ando com o moz\u00e3o Eduardo (@ Pra\u00e7a de Alimenta\u00e7\u00e3o w/ 2 others) http://t.co/ry4iTvskhb", "created_at": "2013-04-13T17:54:08", "screen_name": "IsadoraPeck", "coordinates": {"type": "Point", "coordinates": [-46.33475304, -23.96680332]}},{"text": "shoutout everybody", "created_at": "2013-04-13T17:54:09", "screen_name": "mannyt3013", "coordinates": {"type": "Point", "coordinates": [-73.42768108, 40.7480256]}},{"text": "@amandaaaaa410 need my shoulder to cry on?", "created_at": "2013-04-13T17:54:09", "screen_name": "ERock_CM", "coordinates": {"type": "Point", "coordinates": [-74.02032762, 40.63490753]}},{"text": "Good night, zombies! From Rm48 with love &lt;3 (@ Sabina Dormitory) http://t.co/yi9L2Tl5pM", "created_at": "2013-04-13T17:54:11", "screen_name": "michterious", "coordinates": {"type": "Point", "coordinates": [123.88291142, 10.29919084]}},{"text": "#love #TagsForLikes #TFLers #tweegram #photooftheday #me #instamood #cute #iphonesia #fashion #summer\u2026 http://t.co/VCOVkRgM0Y", "created_at": "2013-04-13T17:54:11", "screen_name": "Machetero_", "coordinates": {"type": "Point", "coordinates": [10.22112693, 45.5366574]}},{"text": "@Piggy_Fatt spaghetti lol", "created_at": "2013-04-13T17:54:11", "screen_name": "oc_fo_lyfe", "coordinates": {"type": "Point", "coordinates": [-93.3748552, 44.7438941]}},{"text": "3q off 1r balls will we win..... @ChennaiIPL it's in @msdhoni and jadega", "created_at": "2013-04-13T17:54:12", "screen_name": "shyamrocky15", "coordinates": {"type": "Point", "coordinates": [80.2726309, 13.0337133]}},{"text": "TEQUIERO PRIMI @AlbaVidal97 \u2665 http://t.co/Mb7mYOgaHT", "created_at": "2013-04-13T17:54:12", "screen_name": "Andreandpe", "coordinates": {"type": "Point", "coordinates": [-0.45058186, 39.12437112]}},{"text": "@kalippo jabalina!! Si pues", "created_at": "2013-04-13T17:54:13", "screen_name": "PattyLu_", "coordinates": {"type": "Point", "coordinates": [0.0, 0.0]}},{"text": "2:00 #PlankADay", "created_at": "2013-04-13T17:54:13", "screen_name": "boblikethebird", "coordinates": {"type": "Point", "coordinates": [-2.3629106, 53.74893134]}},{"text": "Da risa escuchar a Ocariz hablando de patriotismo y levantando las banderas del Libertador S.B. Quitaste el cuadro de Bolivar el 11-A. Falso", "created_at": "2013-04-13T17:54:15", "screen_name": "edocando", "coordinates": {"type": "Point", "coordinates": [-66.8938845, 10.4732674]}},{"text": "I'm at \u5c0f\u5ddd\u753a\u99c5 (Ogawamachi Sta.) (S07) (\u5343\u4ee3\u7530\u533a, \u6771\u4eac\u90fd) http://t.co/wcyXJEijU5", "created_at": "2013-04-13T17:54:16", "screen_name": "tadsan", "coordinates": {"type": "Point", "coordinates": [139.76667166, 35.69505099]}},{"text": "Hoy si q juego", "created_at": "2013-04-13T17:54:18", "screen_name": "La_shuvii", "coordinates": {"type": "Point", "coordinates": [-66.01763892, 18.34395966]}},{"text": "Hadi ya Allah... #osmanl\u0131tokad\u0131", "created_at": "2013-04-13T17:54:19", "screen_name": "islamyusuff", "coordinates": {"type": "Point", "coordinates": [28.9317752, 41.0189847]}},{"text": "Tengok sapa datang kedai kami harini . Zainal Abidin #AstroArena http://t.co/soJeGbBfGZ", "created_at": "2013-04-13T17:54:19", "screen_name": "fifyfariq", "coordinates": {"type": "Point", "coordinates": [102.28319576, 6.11090381]}},{"text": "http://t.co/0Tk5qlQ5Cq", "created_at": "2013-04-13T17:54:20", "screen_name": "Aannddrreeaas", "coordinates": {"type": "Point", "coordinates": [-99.1565004, 23.7630407]}},{"text": "Bugun iki sevgili otobus duraginda 27 saat sarilip opuserek vedalastilar cocuk otobuse bindi kiz 2 dakika sonra arayip merak ettim dedi", "created_at": "2013-04-13T17:54:21", "screen_name": "cansucakici", "coordinates": {"type": "Point", "coordinates": [28.67730218, 41.06092473]}},{"text": "@tburdettx in the taxi that I've just booked u? See you in 10", "created_at": "2013-04-13T17:54:23", "screen_name": "h0lli33", "coordinates": {"type": "Point", "coordinates": [-1.27256649, 53.99853275]}},{"text": "Patrick \ud83d\ude02\ud83d\ude02\ud83d\ude02\ud83d\ude02\ud83d\ude02", "created_at": "2013-04-13T17:54:24", "screen_name": "nataliemordecai", "coordinates": {"type": "Point", "coordinates": [-3.56948007, 51.50025706]}},{"text": "Opo ae yooooo \"@angelinefebyola: Gedobos byaen ag -_-\"", "created_at": "2013-04-13T17:54:28", "screen_name": "bennybagiarta", "coordinates": {"type": "Point", "coordinates": [110.41159, -7.76881]}},{"text": "Allez encore quelques heures de vacances puis retour \u00e0 Paris :) mais comme j'aime mon boulot \u00e7a va !", "created_at": "2013-04-13T17:54:28", "screen_name": "gonzague", "coordinates": {"type": "Point", "coordinates": [-9.59404514, 30.3964906]}},{"text": "I'm at Florya http://t.co/sNvsakQO2Q", "created_at": "2013-04-13T17:54:29", "screen_name": "BurakDemrci", "coordinates": {"type": "Point", "coordinates": [28.79354364, 40.97118573]}},{"text": "Viajar al pasado y gritarle al hom\u00ednido: \u00a1JOPUTA NO TOQUES EL MONOLITO!", "created_at": "2013-04-13T17:54:30", "screen_name": "ustednoesyo", "coordinates": {"type": "Point", "coordinates": [-0.89303374, 41.64098878]}},{"text": "\u0628\u0627\u0644\u0645\u0646\u064e\u0627\u0633\u0628\u064e\u0629 \u061b \u0623\u0646\u0627 \u0628\u0627\u0646\u067a\u0638\u064e\u0627\u0631 \u0639\u0648\u062f\u062a\u064f\u06b0 \u0627\u0644\u0644\u0627 \u0642\u0631\u064a\u0628\u064e\u06c1 \u2661\u0337\u266a", "created_at": "2013-04-13T17:54:30", "screen_name": "2000393", "coordinates": {"type": "Point", "coordinates": [49.5711346, 25.358456]}},{"text": "Entonces comprend\u00ed que se alejo llevando tanta decepci\u00f3n enamorada de aquel tonto que jam\u00e1s le demostr\u00f3", "created_at": "2013-04-13T17:54:30", "screen_name": "MiikySorrentino", "coordinates": {"type": "Point", "coordinates": [-103.47381908, 25.5953083]}},{"text": "\u307e\u3093\u305e\u304f\u3059\u3093\u304c\u306f\u3041\u306f\u3041\u30d5\u30ea\u30d5\u30ea\u3057\u3066\u305d\u3046\n\n\u304a\u3063\u3055\u3093\u306b", "created_at": "2013-04-13T17:54:33", "screen_name": "_Kurutu_", "coordinates": {"type": "Point", "coordinates": [135.772691, 34.967096]}},{"text": "\u201c@ChuckieXO: this movie tho http://t.co/NsjvZ3VrY8\u201d", "created_at": "2013-04-13T17:54:33", "screen_name": "Budward_", "coordinates": {"type": "Point", "coordinates": [-77.48056462, 38.29426448]}},{"text": "@_deannnnna I want it on my neck", "created_at": "2013-04-13T17:54:35", "screen_name": "carrrr_steww", "coordinates": {"type": "Point", "coordinates": [-80.02950179, 40.51758227]}},{"text": "\u043d\u0430 \u0434\u043d\u0435", "created_at": "2013-04-13T17:54:39", "screen_name": "Broken__Trust", "coordinates": {"type": "Point", "coordinates": [37.49979122, 55.85906671]}},{"text": "Sweedish", "created_at": "2013-04-13T17:54:42", "screen_name": "Mrfaiq", "coordinates": {"type": "Point", "coordinates": [112.69617507, -7.37543336]}},{"text": "@_niccki12 ohh really ? \ud83d\ude02\ud83d\ude2c\ud83d\ude2c\ud83d\ude2c I dident know that .", "created_at": "2013-04-13T17:54:44", "screen_name": "AustinBarrick", "coordinates": {"type": "Point", "coordinates": [-82.42568292, 40.06888674]}},{"text": "meu deus que t\u00eanis \u00e9 esse kkkkkkkkkkkkkkkkk nossa senhora", "created_at": "2013-04-13T17:54:44", "screen_name": "Caah_Saantana", "coordinates": {"type": "Point", "coordinates": [-46.76696647, -23.60253059]}},{"text": "@ycldmn gel sen fink fink yapar\u0131z sizlede :))", "created_at": "2013-04-13T17:54:44", "screen_name": "haticekiyli", "coordinates": {"type": "Point", "coordinates": [28.99496975, 40.2106079]}},{"text": "#TheVoice loooooool @JessieJ \"I might actually have a lil cry uno\" sooooooooo sarcastic \ud83d\ude48\ud83d\ude02\ud83d\ude02\ud83d\ude02\ud83d\ude2d\ud83d\ude02\ud83d\ude2d\ud83d\ude02\ud83d\ude2d", "created_at": "2013-04-13T17:54:45", "screen_name": "Kadzworld", "coordinates": {"type": "Point", "coordinates": [-0.29408909, 51.48744742]}},{"text": "Goool del wigan.!!", "created_at": "2013-04-13T17:54:45", "screen_name": "Hosorio22", "coordinates": {"type": "Point", "coordinates": [-87.8049598, 15.39675224]}},{"text": "@yayo_tobar  owww!!! Wn los conejos son bacanes si hasta su caquita es tierna, igual son medios edionditos.", "created_at": "2013-04-13T17:54:46", "screen_name": "FernandoPiffard", "coordinates": {"type": "Point", "coordinates": [-70.56084861, -33.41647967]}},{"text": "minha irm\u00e3 \u00e9 a cara da minha, se fosse filha n parecia tanto", "created_at": "2013-04-13T17:54:46", "screen_name": "Layzera", "coordinates": {"type": "Point", "coordinates": [-46.7537324, -23.7248836]}},{"text": "@ZakyOfficial bas el englesy bta3ak at7aan kteer masha2allah....", "created_at": "2013-04-13T17:54:46", "screen_name": "Bunshoo", "coordinates": {"type": "Point", "coordinates": [31.33414012, 30.07658922]}},{"text": "\u201c@TheKesh_: Lmao becky!\u201d\ud83d\ude09", "created_at": "2013-04-13T17:54:47", "screen_name": "beckyjanethomas", "coordinates": {"type": "Point", "coordinates": [-84.55977899, 40.54907425]}},{"text": "@MsKandigirl2U sending some Saturday love", "created_at": "2013-04-13T17:54:47", "screen_name": "minizter", "coordinates": {"type": "Point", "coordinates": [-61.38809417, 15.29887867]}},{"text": "I'm at Residencial Ibiza http://t.co/bGwgans93m", "created_at": "2013-04-13T17:54:48", "screen_name": "fabiano_hendges", "coordinates": {"type": "Point", "coordinates": [-48.32686079, -10.16990751]}},{"text": "Buat semua yang bakalan ujian hari senin, semangat ya! Belajar yang giat dan jangan lupa slalu berdoa :) #Love", "created_at": "2013-04-13T18:51:01", "screen_name": "joelmatulessy", "coordinates": {"type": "Point", "coordinates": [106.78791, -6.17155]}},{"text": "@kevinwadee hahaha no mames ya vi que mamada", "created_at": "2013-04-13T18:51:01", "screen_name": "hectorjg0", "coordinates": {"type": "Point", "coordinates": [-97.46236967, 20.53862535]}},{"text": "Se a solid\u00e3o me vaia, o amor insiste em decorar os palcos pra outra paix\u00e3o.. \ud83d\ude2d\ud83d\udc94", "created_at": "2013-04-13T18:51:02", "screen_name": "laridelimaf", "coordinates": {"type": "Point", "coordinates": [-49.06806853, -11.72486176]}},{"text": "@_Caitlinnn @fstadt1993 ik ben heeel benieuwd!!", "created_at": "2013-04-13T18:51:04", "screen_name": "MelissavGijn", "coordinates": {"type": "Point", "coordinates": [5.04304283, 52.02873835]}},{"text": "RAAAAH PUTAIN MAIS CE MICHAEL IL M'\u00c9NERVE J'VAIS LUI NIQUER SA RACE", "created_at": "2013-04-13T18:51:05", "screen_name": "eternalarry", "coordinates": {"type": "Point", "coordinates": [-0.25317237, 44.85450827]}},{"text": "I like the way she did it", "created_at": "2013-04-13T18:51:06", "screen_name": "Gentlelookz", "coordinates": {"type": "Point", "coordinates": [3.61173, 6.48119]}},{"text": "@ourherojusten NALDOO NA GLOBO", "created_at": "2013-04-13T18:51:06", "screen_name": "EternalNaavy", "coordinates": {"type": "Point", "coordinates": [-60.0340568, -3.1190002]}},{"text": "So tomorrow? @KenzieJR @SophieElizabet4 @ssimchon @JulieCatherine5 @eliserohrbach @tori_gracee @cameronleigh143 @abbierohrbach -", "created_at": "2013-04-13T18:51:07", "screen_name": "cmag17", "coordinates": {"type": "Point", "coordinates": [-82.17957712, 34.21274891]}},{"text": "Been at golf all day came 2nd but pissed off #stfc lost again. Come on lads sort it out #passion", "created_at": "2013-04-13T18:51:07", "screen_name": "MarkKeenan5", "coordinates": {"type": "Point", "coordinates": [-1.8208137, 51.5947291]}},{"text": "I am aware that I am less than some people prefer me to be, but most people are unaware that I am so much more than what they see.", "created_at": "2013-04-13T18:51:09", "screen_name": "annieschultz23", "coordinates": {"type": "Point", "coordinates": [-88.37352821, 40.47625788]}},{"text": "@MireyBF yeah both of them are obviously losing :P", "created_at": "2013-04-13T18:51:11", "screen_name": "eliefares", "coordinates": {"type": "Point", "coordinates": [35.70325969, 34.25765719]}},{"text": "Now we on top of the world, thats just how we do", "created_at": "2013-04-13T18:51:14", "screen_name": "Elisem11", "coordinates": {"type": "Point", "coordinates": [-3.4371505, 56.3985473]}},{"text": "@LiizParra1 noo reina cumplo 14x.x jaja", "created_at": "2013-04-13T18:51:14", "screen_name": "Marbe_v", "coordinates": {"type": "Point", "coordinates": [-72.44251, 7.92232]}},{"text": "\ud83d\ude22\ud83d\ude22", "created_at": "2013-04-13T18:51:15", "screen_name": "gilimao", "coordinates": {"type": "Point", "coordinates": [-49.05917279, -22.29993674]}},{"text": "@PuRpSkiii_Badd I see you with da extension lol fwm purp", "created_at": "2013-04-13T18:51:16", "screen_name": "CKASHBLASH", "coordinates": {"type": "Point", "coordinates": [-82.0722505, 33.4247171]}},{"text": "(Had to take a break from veganism, sorry)", "created_at": "2013-04-13T18:51:17", "screen_name": "leannesturrock", "coordinates": {"type": "Point", "coordinates": [-1.00768304, 53.5742756]}},{"text": "No other place I'd rather be. #palmsprings #oliver #BFFs @ Rancho Relaxo http://t.co/DFr52NV5Vj", "created_at": "2013-04-13T18:51:19", "screen_name": "QueenWestGirl", "coordinates": {"type": "Point", "coordinates": [-116.554376, 33.858181]}},{"text": "\"@NoahBauer09: So bored mayne\"", "created_at": "2013-04-13T18:51:20", "screen_name": "its_swaaag", "coordinates": {"type": "Point", "coordinates": [-75.1039694, 39.7763962]}},{"text": "Time to magnolia \uf60d (at @CookShopTr w/ 57 others) http://t.co/EpcKIiGFSk", "created_at": "2013-04-13T18:51:22", "screen_name": "Alaara", "coordinates": {"type": "Point", "coordinates": [28.99266292, 41.04870203]}},{"text": "Maybee", "created_at": "2013-04-13T18:51:23", "screen_name": "istealTWINKIES", "coordinates": {"type": "Point", "coordinates": [-72.67935353, 41.74041777]}},{"text": "That girl was incredible! Made me cry #BGT", "created_at": "2013-04-13T18:51:25", "screen_name": "amywingfieldx", "coordinates": {"type": "Point", "coordinates": [-1.97976029, 52.41116384]}},{"text": "I need a hair cut once again. I can't stay out the shop need one like every week", "created_at": "2013-04-13T18:51:27", "screen_name": "singingjoe20", "coordinates": {"type": "Point", "coordinates": [-97.4992912, 35.6132386]}},{"text": "\u0422\u044f\u0436\u0435\u043b\u043e, \u043a\u043e\u0433\u0434\u0430 \u043d\u0435 \u0441 \u043a\u0435\u043c \u043f\u043e\u0433\u043e\u0432\u043e\u0440\u0438\u0442\u044c \u043e \u0441\u0432\u043e\u0438\u0445 \u0440\u0435\u0430\u043b\u044c\u043d\u044b\u0445 \u0447\u0443\u0432\u0441\u0442\u0432\u0430\u0445.", "created_at": "2013-04-13T18:51:28", "screen_name": "prosto_dudkina", "coordinates": {"type": "Point", "coordinates": [60.6006391, 56.8909309]}},{"text": "Nadie???????? Bueno... Han pasado 10 minutos! Faltan 40 \u2639", "created_at": "2013-04-13T18:51:28", "screen_name": "MajoBuendia", "coordinates": {"type": "Point", "coordinates": [-75.46989, 10.51561]}},{"text": "I'm at Chimes Tower @ Longwood Garden (Kennett Square, PA) http://t.co/S3leSgkhZ3", "created_at": "2013-04-13T18:51:29", "screen_name": "IamDraven", "coordinates": {"type": "Point", "coordinates": [-75.677406, 39.869877]}},{"text": "Jas\u00fas morro de calor", "created_at": "2013-04-13T18:51:29", "screen_name": "LuciaLopez_4", "coordinates": {"type": "Point", "coordinates": [-8.408586, 43.3403055]}},{"text": "I'm at Kas\u0131mpa\u015fa http://t.co/FB1Qfn80Aw", "created_at": "2013-04-13T18:51:30", "screen_name": "DiishiiAslan", "coordinates": {"type": "Point", "coordinates": [8.525135, 47.393948]}},{"text": "Water Service Shut Off Due to Main Break: A water main break in San Diego\u2019s Oak Park community left customers... http://t.co/fgOcj9L8ur", "created_at": "2013-04-13T18:51:31", "screen_name": "SanDiegoCP", "coordinates": {"type": "Point", "coordinates": [-117.16627197, 32.7143122]}},{"text": "Ei kap,, adi main kari nurungta e,, tama taruhna,,penukur gantina lh gia @Liresss", "created_at": "2013-04-13T18:51:33", "screen_name": "yosafat_arby", "coordinates": {"type": "Point", "coordinates": [110.37943829, -7.78685684]}},{"text": "Watching October Sky", "created_at": "2013-04-13T18:51:36", "screen_name": "CashOut_Nino", "coordinates": {"type": "Point", "coordinates": [-81.45164365, 28.54338401]}},{"text": "I'm at Cemal'in Yeri w/ @gzdbyc @oyacetinbas http://t.co/htV2EZfVuq", "created_at": "2013-04-13T18:51:38", "screen_name": "aykut35", "coordinates": {"type": "Point", "coordinates": [27.09840698, 38.45587237]}},{"text": "Que dor no p\u00e9", "created_at": "2013-04-13T18:51:39", "screen_name": "ThaiAzevedo_", "coordinates": {"type": "Point", "coordinates": [-43.57418465, -22.9024595]}},{"text": "@babsmeirelles PARTIIIU! Segunda vamos combinar tudo direitinho o/", "created_at": "2013-04-13T18:51:39", "screen_name": "ledarocha", "coordinates": {"type": "Point", "coordinates": [-43.2245634, -22.92576092]}},{"text": "quiero q este aqui cnmigo.", "created_at": "2013-04-13T18:51:40", "screen_name": "amaandaapereez", "coordinates": {"type": "Point", "coordinates": [-4.94069449, 37.37640677]}},{"text": "Zaman yapaca\u011f\u0131n\u0131 yapmadan bize, gel bir kadeh \u015farap i\u00e7elim seninle.", "created_at": "2013-04-13T18:51:40", "screen_name": "Kserbestt", "coordinates": {"type": "Point", "coordinates": [28.78186, 41.00215]}},{"text": "On route to @RevsLboro", "created_at": "2013-04-13T18:51:41", "screen_name": "djjuvenile", "coordinates": {"type": "Point", "coordinates": [-1.15079955, 52.62692816]}},{"text": "Dont really like #bgt, but that little girl.. amazing aint the word", "created_at": "2013-04-13T18:51:41", "screen_name": "emilymellor_", "coordinates": {"type": "Point", "coordinates": [-0.376854, 51.5620118]}},{"text": "@anna_deutsch @ Reformation http://t.co/zBBdsYfYAF", "created_at": "2013-04-13T18:51:41", "screen_name": "abbyjlavin", "coordinates": {"type": "Point", "coordinates": [-74.00046349, 40.71947336]}},{"text": "#HoyHayQueGanarBasurero http://t.co/kbxmxKN9pS", "created_at": "2013-04-13T18:51:42", "screen_name": "raguspier", "coordinates": {"type": "Point", "coordinates": [-57.93299253, -34.91150136]}},{"text": "Eu ia ver os pre\u00e7os pra viajar pra Orlando ano que vem mas essa chuva cago!", "created_at": "2013-04-13T18:51:44", "screen_name": "robs_oliver", "coordinates": {"type": "Point", "coordinates": [-46.3365634, -23.9654995]}},{"text": "Veiiiiiiiiiiiiiiiiiiiiii", "created_at": "2013-04-13T18:51:44", "screen_name": "felippebrum", "coordinates": {"type": "Point", "coordinates": [-106.94217855, 44.79104317]}},{"text": "Our topics at work lmao", "created_at": "2013-04-13T18:51:45", "screen_name": "_JoellMeKih", "coordinates": {"type": "Point", "coordinates": [-76.17631889, 43.01304141]}},{"text": "@anafrecceiro @isaavelozo adorei o apelido suuuuuper carinhoso no come\u00e7o da frase hahahaha", "created_at": "2013-04-13T18:51:45", "screen_name": "GabriellyLeonel", "coordinates": {"type": "Point", "coordinates": [-49.25814576, -25.49544894]}},{"text": "@aalicekay alarm is on every night :/", "created_at": "2013-04-13T18:51:45", "screen_name": "MikeHarting", "coordinates": {"type": "Point", "coordinates": [101.64695705, 3.16829086]}},{"text": "#thevoice Leah is like a mini Jessie j", "created_at": "2013-04-13T18:51:46", "screen_name": "pete1986", "coordinates": {"type": "Point", "coordinates": [-1.06112002, 50.78845001]}},{"text": "I just went threw all my pictures , i was ugly lmao", "created_at": "2013-04-13T18:51:46", "screen_name": "__ancientBEauty", "coordinates": {"type": "Point", "coordinates": [-83.2346905, 42.354737]}},{"text": "#Nw simpson", "created_at": "2013-04-13T18:51:47", "screen_name": "willydingus", "coordinates": {"type": "Point", "coordinates": [2.5281616, 48.7002982]}},{"text": "Sol, batucada, festa, bon rotllo, cervesa... Granada! #nenestour @ el huerto del Carlos. Granada. http://t.co/7FrMey2aVG", "created_at": "2013-04-13T18:51:47", "screen_name": "ivetDn", "coordinates": {"type": "Point", "coordinates": [-3.59525333, 37.18105366]}},{"text": "Hmmmm \u263a arsenal I was actually very impressed with d team's performance against norwich city today.", "created_at": "2013-04-13T18:51:48", "screen_name": "Donchairmz", "coordinates": {"type": "Point", "coordinates": [8.35422, 4.9722]}},{"text": "Looooong daaaayyy \ud83d\ude34", "created_at": "2013-04-13T18:51:48", "screen_name": "julia_perham", "coordinates": {"type": "Point", "coordinates": [-74.00737409, 40.74826688]}},{"text": "Tendrian que ser ilegales las gordas en malla, calzas u otro estereotipo de ropa apretada, alguien haga algo, nose..", "created_at": "2013-04-13T18:51:48", "screen_name": "BastanteLogico", "coordinates": {"type": "Point", "coordinates": [-58.84127676, -34.4181412]}},{"text": "Happy birthday @TylerDawson23!", "created_at": "2013-04-13T18:51:50", "screen_name": "lindsbenzz", "coordinates": {"type": "Point", "coordinates": [-97.06958056, 36.12351473]}},{"text": "Acabou de publicar uma foto @ Para\u00edso Particular http://t.co/3JYAb19OG6", "created_at": "2013-04-13T18:51:52", "screen_name": "Ana_Paula_Groth", "coordinates": {"type": "Point", "coordinates": [-51.2044954, -30.0455609]}},{"text": "@_maatheusiinho manja eu manjo at\u00e9 demais, por\u00e9m n\u00e3o tem comida em casa kkkk", "created_at": "2013-04-13T18:51:52", "screen_name": "Lolo_rls", "coordinates": {"type": "Point", "coordinates": [-47.23955569, -22.82359355]}},{"text": "@SanderKoes ze winnnen", "created_at": "2013-04-13T18:51:55", "screen_name": "MDusschoten", "coordinates": {"type": "Point", "coordinates": [5.6073505, 52.186188]}},{"text": "These pain killers should do it for me.", "created_at": "2013-04-13T18:51:56", "screen_name": "I_Am_KiaMorgz", "coordinates": {"type": "Point", "coordinates": [-95.3495535, 29.7219445]}},{"text": "I'm at El Tapon De La Kennedy (San Juan) http://t.co/IQScJUEFsB", "created_at": "2013-04-13T18:51:58", "screen_name": "jdani88pr", "coordinates": {"type": "Point", "coordinates": [-66.09683912, 18.42364601]}},{"text": "kangen :') (@ SMA Negeri 1 Klaten) http://t.co/ph80ePJbIS", "created_at": "2013-04-13T18:51:59", "screen_name": "tpxddd", "coordinates": {"type": "Point", "coordinates": [110.3673511, -7.7985158]}},{"text": "@TheVoiceVOE @CharlieTango135 I dont know where she found it love, but thanks for the wonderful image of you lol", "created_at": "2013-04-13T18:51:59", "screen_name": "deseraepuckett", "coordinates": {"type": "Point", "coordinates": [-79.4147754, 36.0761487]}},{"text": "@xtinadanielle idfk but there's no where to sit and smoke so my friend and I sat on the curb to smoke and we couldn't get back in.", "created_at": "2013-04-13T18:52:00", "screen_name": "AdamSchouten", "coordinates": {"type": "Point", "coordinates": [-74.310879, 40.5251906]}},{"text": "\u201c \u0645\u0627 \u0644\u0644\u0643\u0633\u0648\u0631 \u0628\u062e\u0627\u0637\u0631 \u0627\u0644\u0648\u062c\u062f \u062c\u0627\u0628\u0631\n\u0648\u0645\u0627 \u0644\u0644\u062f\u0645\u0648\u0639 \u0628\u062d\u0627\u062c\u0631 \u0627\u0644\u0639\u064a\u0646 \u0645\u0631\u0645\u0649\n\u0635\u062f\u0648\u0631\u0646\u0627 \u0644\u0640 \u0647\u0645\u0648\u0645 \u0628\u0642\u0639\u0627  \u0645\u0642\u0627\u0628\u0631\n\u0648\u0627\u0641\u0648\u0627\u0647\u0646\u0627 \u0639\u0646 \u0630\u0643\u0631 \u0627\u0644\u0627\u0648\u062c\u0627\u0639 \u0637\u0631\u0645\u0649", "created_at": "2013-04-13T18:52:00", "screen_name": "ksa_afaf", "coordinates": {"type": "Point", "coordinates": [46.86184206, 24.67705987]}},{"text": "Father charged in baby stabbing: A Germantown father has been charged in the stabbing of his 7-month-old son, who... http://t.co/VRddnBqtn4", "created_at": "2013-04-13T18:52:02", "screen_name": "PhiladelphiaCP", "coordinates": {"type": "Point", "coordinates": [-75.16645509, 39.93997834]}},{"text": "\u0645\u0646 \u064a\u0646\u062a\u0638\u0631 \u0631\u062f \u0627\u0644\u0639\u0637\u0627 \u0644\u0627 \u0639\u0637\u0649 \u062e\u064a\u0640\u0640\u0640\u0631\n\u0627\u0631\u062f\u0649 \u0645\u0646 \u0627\u0644\u0644\u064a \u0645\u0627 \u0639\u0637\u0649 \u0641\u064a \u062d\u064a\u0627\u062a\u0647 \n\n\u0647\u0630\u0627 \u0627\u0644\u0645\u0637\u0631 \u064a\u0639\u0637\u064a \u0648\u0644\u0627 \u064a\u0646\u062a\u0638\u0631 \u063a\u064a\u0640\u0640\u0640\u0640\u0640\u0631\n\u062a\u064e\u0636\u0641\u064a \u0639\u0644\u0649 \u062c\u0631\u062f \u0627\u0644\u0635\u062d\u0627\u0631\u064a \u0639\u0628\u0627\u062a\u0647/\u0645\u0646\u0642\u0648\u0644 ..!!!", "created_at": "2013-04-13T18:52:02", "screen_name": "athabess30", "coordinates": {"type": "Point", "coordinates": [35.7057212, 27.3469497]}},{"text": "I love PA! (@ Mechanicsburg, PA) http://t.co/cJfbeOTDlL", "created_at": "2013-04-13T18:52:05", "screen_name": "stineybeany", "coordinates": {"type": "Point", "coordinates": [-77.010412, 40.213752]}},{"text": "Felipe e LFernando! @ Casa do Neg\u00e3o http://t.co/RwZ8iyADmc", "created_at": "2013-04-13T18:52:05", "screen_name": "FabianoMBicudo", "coordinates": {"type": "Point", "coordinates": [-49.86766667, -21.54166667]}},{"text": "I just clocked BGT stands for Britons got talent....", "created_at": "2013-04-13T18:52:06", "screen_name": "Tekhmeed", "coordinates": {"type": "Point", "coordinates": [-0.22720865, 51.55274671]}},{"text": "@crusader_peter Merci et tr\u00e8s heureux.", "created_at": "2013-04-13T18:52:06", "screen_name": "UMP48LANSEL", "coordinates": {"type": "Point", "coordinates": [2.40692672, 44.4384952]}},{"text": "The birthday girl gigginnn! Ayyyeee!!! @Swisher_bby http://t.co/uYA4rNNel8", "created_at": "2013-04-13T18:52:08", "screen_name": "HustlerSteveen", "coordinates": {"type": "Point", "coordinates": [-119.30546442, 36.19303765]}},{"text": "@oursummershade Guess what? X", "created_at": "2013-04-13T18:52:10", "screen_name": "proudof_harry", "coordinates": {"type": "Point", "coordinates": [-86.73358801, 34.44622292]}},{"text": "Otra noche como la de ayer....yaaaaaa! Ea", "created_at": "2013-04-13T18:52:10", "screen_name": "a_reyes19", "coordinates": {"type": "Point", "coordinates": [-3.7815029, 37.7836353]}},{"text": "RT a esta imagen, por fa. http://t.co/o2j4vN3hTb", "created_at": "2013-04-13T18:52:10", "screen_name": "vicxorymijo", "coordinates": {"type": "Point", "coordinates": [-66.94637, 10.59651]}},{"text": "@golfwangtyler no", "created_at": "2013-04-13T18:52:12", "screen_name": "A__baybay_", "coordinates": {"type": "Point", "coordinates": [-83.1421376, 42.5601586]}},{"text": "@eddieboyy12 looool whys it even sayim whre im tweeting from chale dis twitter stuff isnt good if u aint got papers #kai! #asem", "created_at": "2013-04-13T18:52:14", "screen_name": "MelvzK", "coordinates": {"type": "Point", "coordinates": [-1.97663346, 52.49969879]}},{"text": "@NICKIMINAJ *_____*", "created_at": "2013-04-13T18:52:15", "screen_name": "StanWolff", "coordinates": {"type": "Point", "coordinates": [6.18031104, 48.67293566]}},{"text": "I'm at United States Botanic Garden - @uscapitol (Washington, DC) w/ 7 others http://t.co/Z1MvTqhORX", "created_at": "2013-04-13T18:52:18", "screen_name": "cj_pomerantz", "coordinates": {"type": "Point", "coordinates": [-77.01292634, 38.88793465]}},{"text": "Un cachonnnnnd queria sacarse una doto con nosotras sisisi @alazneg97 @Izaroal17", "created_at": "2013-04-13T18:52:20", "screen_name": "Ane_hernando", "coordinates": {"type": "Point", "coordinates": [-3.01075599, 43.33825601]}},{"text": "@SabadazoOficial  Queremos Ver A Lapizito Si Pintura ((;", "created_at": "2013-04-13T18:52:20", "screen_name": "jorgeGradoo", "coordinates": {"type": "Point", "coordinates": [-104.39946164, 29.55298729]}},{"text": "\u2693\u2693\u2693 @ Ilha Grande http://t.co/xvtcWfIajv", "created_at": "2013-04-13T18:52:22", "screen_name": "Felippe_2009", "coordinates": {"type": "Point", "coordinates": [-44.16750521, -23.14154527]}},{"text": "@MARACAYACTIVA @CorpTijuana precio de los aires?", "created_at": "2013-04-13T18:52:22", "screen_name": "Mily_Laya", "coordinates": {"type": "Point", "coordinates": [-67.55024, 10.1711337]}},{"text": "@MelikeJns bela okuma K\u00d6PEKKK :D", "created_at": "2013-04-13T18:52:28", "screen_name": "YaseminYamann", "coordinates": {"type": "Point", "coordinates": [32.88996848, 39.88864688]}},{"text": "\"@helswits: @brayo_ule_muzri u wana gimme one \uff1fam ind\u00f6orz ths wknd\" ni mingi I can giv u 2", "created_at": "2013-04-13T18:52:29", "screen_name": "brayo_ule_muzri", "coordinates": {"type": "Point", "coordinates": [36.8940364, -1.3136979]}},{"text": "Sin duda, 2 golpes  pesan m\u00e1s que una multa pero no se comparan con una expulsi\u00f3n. A Tiger Woods lo penalizaron por falta contra reglamento.", "created_at": "2013-04-13T18:52:29", "screen_name": "ruffinoacosta", "coordinates": {"type": "Point", "coordinates": [-74.03643, 4.72376]}},{"text": "I'm in love with chimichangas", "created_at": "2013-04-13T18:52:29", "screen_name": "elleeebellee", "coordinates": {"type": "Point", "coordinates": [-117.91822147, 33.81333936]}},{"text": "I slept in my bathroom.", "created_at": "2013-04-13T18:52:30", "screen_name": "_shruglife", "coordinates": {"type": "Point", "coordinates": [-114.10919803, 51.06867591]}},{"text": "Sucks to suck meg", "created_at": "2013-04-13T18:52:30", "screen_name": "youwantthisNICK", "coordinates": {"type": "Point", "coordinates": [-75.30533218, 39.89134751]}},{"text": "I bet annually thousand of peoples houses burn down without 911 helping because of that song.", "created_at": "2013-04-13T18:52:31", "screen_name": "ducklips513", "coordinates": {"type": "Point", "coordinates": [-84.2366878, 39.0825412]}},{"text": "RT\"@ShakiiMtz: #UnNovioParaMamota #UnNovioParaMamota #UnNovioParaMamota #UnNovioParaMamota #UnNovioParaMamota @MamoOtaa_x3\"", "created_at": "2013-04-13T18:52:32", "screen_name": "_FlyMoreniitoX7", "coordinates": {"type": "Point", "coordinates": [-69.98153672, 18.46146391]}},{"text": "T'\u00e9nerve pas oh.", "created_at": "2013-04-13T18:52:34", "screen_name": "LisaStohr", "coordinates": {"type": "Point", "coordinates": [2.3658952, 48.6835104]}},{"text": "La verdad verdad .... no me importa", "created_at": "2013-04-13T18:52:35", "screen_name": "fannie2418", "coordinates": {"type": "Point", "coordinates": [-79.3965537, 9.0863429]}},{"text": "ile @oguzbilgin (@ Piyano Cafe w/ @mehmet_umur @mesutsukas) http://t.co/7N95SR8cEa", "created_at": "2013-04-13T18:52:41", "screen_name": "Colakemr", "coordinates": {"type": "Point", "coordinates": [40.51905605, 41.0256559]}},{"text": "@58Inches____ Yu ain't seeing me frfr", "created_at": "2013-04-13T18:52:42", "screen_name": "Vonda_Lashley", "coordinates": {"type": "Point", "coordinates": [-90.38975342, 38.69169857]}},{"text": "I'm at Terminal de Transporte (Santiago, Veraguas) http://t.co/lDKQHe9apT", "created_at": "2013-04-13T18:52:43", "screen_name": "JULIANOJO", "coordinates": {"type": "Point", "coordinates": [-80.97371221, 8.10472484]}},{"text": "@ConsuGalindez A las 7 en mi casa! NO ENTRAS SIN ALIMENTO!!!! AVISO.", "created_at": "2013-04-13T18:52:44", "screen_name": "RooCesca", "coordinates": {"type": "Point", "coordinates": [-65.2547121, -26.82261586]}},{"text": "@LadyDeeTeeMI No Thank you!!! It was inspiring to meet so many talented young people and their families! :)", "created_at": "2013-04-13T18:52:44", "screen_name": "AlexisWileyFox2", "coordinates": {"type": "Point", "coordinates": [-83.24347761, 42.47861703]}},{"text": "@Chloewadington chance of gettin in touch", "created_at": "2013-04-13T18:52:45", "screen_name": "NatalieGansler", "coordinates": {"type": "Point", "coordinates": [-2.22019617, 53.69222777]}},{"text": "@JessicaLeles_ Depende se tem duas provas perto... Eu estudo para a que eu preciso de mais pontos. :)", "created_at": "2013-04-13T18:52:45", "screen_name": "lekamyself", "coordinates": {"type": "Point", "coordinates": [-47.9674747, -15.8463213]}},{"text": "@NicolasMaduro ma\u00f1Ana nuestra VICTORIA PERFECTA Sr Presidente", "created_at": "2013-04-13T18:52:48", "screen_name": "lisagredo", "coordinates": {"type": "Point", "coordinates": [-67.3625794, 9.9148729]}},{"text": "@07glcnglc demi :)", "created_at": "2013-04-13T18:52:48", "screen_name": "emreerblk", "coordinates": {"type": "Point", "coordinates": [30.55089016, 37.77273477]}},{"text": "Dias sim dias nao, eu vou sobrevivendo sem um arranh\u00e3o, da caridade de qmmm me detesta\ud83c\udfb5\ud83c\udfb6", "created_at": "2013-04-13T18:52:49", "screen_name": "moraesmaari", "coordinates": {"type": "Point", "coordinates": [-34.90666866, -8.12576938]}},{"text": "all won't let these little things", "created_at": "2013-04-13T18:52:50", "screen_name": "from3ngland", "coordinates": {"type": "Point", "coordinates": [-46.3101594, -23.5450594]}},{"text": "Quue dia lindo :-)", "created_at": "2013-04-13T18:52:53", "screen_name": "thaynara_so", "coordinates": {"type": "Point", "coordinates": [-40.0636087, -4.7945466]}},{"text": "@Jennettemccurdy If you see my tweet please follow me, i love you so much &lt;3 # followmejennettemccurdy soon I blocked 71", "created_at": "2013-04-13T18:52:54", "screen_name": "chenshaul", "coordinates": {"type": "Point", "coordinates": [34.7421814, 32.0091561]}},{"text": "@MeMyselfAnd_SHY rule #1 neva go to da mall nd dnt buy me nun..(:", "created_at": "2013-04-13T18:52:55", "screen_name": "YupDhatxMeh", "coordinates": {"type": "Point", "coordinates": [-89.4457444, 34.7687668]}},{"text": "@ledliylbs @Ayoo_Guanna no.", "created_at": "2013-04-13T18:52:58", "screen_name": "elise_kas_", "coordinates": {"type": "Point", "coordinates": [-71.102096, 42.7939496]}},{"text": "OMG @kfaichhhh FINALLY WORKS WITH ME \ud83d\ude0d", "created_at": "2013-04-13T18:52:59", "screen_name": "paigemarie017", "coordinates": {"type": "Point", "coordinates": [-89.64433892, 40.54700816]}},{"text": "\"@Questionnier: That person you miss rite now? #QnA oomf\"", "created_at": "2013-04-13T18:53:00", "screen_name": "_iamTJ", "coordinates": {"type": "Point", "coordinates": [28.06115, -26.10295]}},{"text": "@fcmeubebe kkkkkkk- lerdona c\u00ea \u00e9 uma piada", "created_at": "2013-04-13T18:53:03", "screen_name": "luanj0meu", "coordinates": {"type": "Point", "coordinates": [-48.4490253, -1.3460018]}},{"text": "Altos problemos nosotras", "created_at": "2013-04-13T18:53:07", "screen_name": "Valegut_21", "coordinates": {"type": "Point", "coordinates": [-64.2023075, -31.4155342]}},{"text": "Noms (at @PorchettaNyc) http://t.co/Rt062vYWBf", "created_at": "2013-04-13T18:53:07", "screen_name": "Planetpinto", "coordinates": {"type": "Point", "coordinates": [-73.984711, 40.72659]}},{"text": "@TaksimFM la iki tane istegimide yedinizya alacaginiz olsun !!\nSizi protesto ediyorum. Hatta komposto ediyor sabaha kadar dinliyorum hihihi", "created_at": "2013-04-13T18:53:09", "screen_name": "Alican_75", "coordinates": {"type": "Point", "coordinates": [5.69110044, 51.46114497]}},{"text": "Aq em caieiras", "created_at": "2013-04-13T18:53:10", "screen_name": "fehliveira", "coordinates": {"type": "Point", "coordinates": [-46.74321601, -23.36433765]}},{"text": "I'm at Royal Palm Plaza Resort - @royalpalmhotels (Campinas, SP) http://t.co/Jfn6aQf6nk", "created_at": "2013-04-13T18:53:10", "screen_name": "Ysm_", "coordinates": {"type": "Point", "coordinates": [-47.0720385, -22.93550241]}},{"text": "This Bitch look Dirty", "created_at": "2013-04-13T18:53:10", "screen_name": "HaynesTyrone", "coordinates": {"type": "Point", "coordinates": [-83.96947812, 34.07265992]}},{"text": "Eu como smp aq de vl -.-", "created_at": "2013-04-13T18:53:11", "screen_name": "Brendha_Evellyn", "coordinates": {"type": "Point", "coordinates": [-34.9696854, -8.0899619]}},{"text": "I need to get my fucking shit together...complete wreck", "created_at": "2013-04-13T18:53:12", "screen_name": "Da902Kidd", "coordinates": {"type": "Point", "coordinates": [-63.13752062, 46.24829778]}},{"text": "Thriller@sirjadeja", "created_at": "2013-04-13T18:53:12", "screen_name": "pawanbhatia83", "coordinates": {"type": "Point", "coordinates": [72.893125, 19.0427543]}},{"text": "Sok mati org . Arrrgh emosi aku \"@saftian_iman: Gak ah , Gak mau Tidor aku sampek lulus UN ni :D RT @RiskaSetiadiM Pigi tidor", "created_at": "2013-04-13T18:53:13", "screen_name": "RiskaSetiadiM", "coordinates": {"type": "Point", "coordinates": [95.3689144, 5.5354618]}},{"text": "I'm at Jackson's Kingdom w/ @nilayakalin http://t.co/AkhnqE6hAS", "created_at": "2013-04-13T18:53:13", "screen_name": "DilaSingil", "coordinates": {"type": "Point", "coordinates": [27.14272141, 38.43728722]}},{"text": "Le nouvelle episode de Dans le Kartier il est louuuuuuuurd hahahaha #ON", "created_at": "2013-04-13T18:53:15", "screen_name": "StevenZaiko_243", "coordinates": {"type": "Point", "coordinates": [2.5588036, 48.8363172]}},{"text": "@efekanyksl haftaya art\u0131k kanka", "created_at": "2013-04-13T18:53:15", "screen_name": "ArmanBekta", "coordinates": {"type": "Point", "coordinates": [36.28964439, 41.33114134]}},{"text": "@thenameshmerika it's cause we're not there to keep everything in check", "created_at": "2013-04-13T18:53:16", "screen_name": "vasilly60", "coordinates": {"type": "Point", "coordinates": [-77.66941648, 43.08458707]}},{"text": "Travis talk like my gay uncle", "created_at": "2013-04-13T18:53:17", "screen_name": "iTeeBreezyYo", "coordinates": {"type": "Point", "coordinates": [-77.48733294, 35.60242499]}},{"text": "@chpwn 1- oppose him 2- defend @evad3rs 3- wait for the reword BLOCKED \nWelcome to the club", "created_at": "2013-04-13T18:53:17", "screen_name": "MarkAnees", "coordinates": {"type": "Point", "coordinates": [30.98836917, 30.79068471]}},{"text": "brangkat ke bringkit qiqiqiqiqi\u201c@abim_basong: Brangkat kije bli ? \"@bagiokputra: brangkat \u2708\"\u201d", "created_at": "2013-04-13T18:53:19", "screen_name": "bagiokputra", "coordinates": {"type": "Point", "coordinates": [115.20991179, -8.67007761]}},{"text": "I'm at Kuru\u00e7e\u015fme Kahvesi - @kurucesmekahve w/ @mertbilgin http://t.co/q9lv91gug1", "created_at": "2013-04-13T18:53:20", "screen_name": "asliayan", "coordinates": {"type": "Point", "coordinates": [29.035719, 41.05917099]}},{"text": "I swear Kaylie has to be one of the prettiest mixed girls EVERRRRRRR", "created_at": "2013-04-13T18:53:23", "screen_name": "SommerBoo", "coordinates": {"type": "Point", "coordinates": [-97.12317254, 32.64548114]}},{"text": "@HarrisonKent1 haha that's the funniest thing I have ever heard \ud83d\ude34", "created_at": "2013-04-13T18:53:26", "screen_name": "SamHowell3", "coordinates": {"type": "Point", "coordinates": [0.81643378, 51.62836065]}},{"text": "Circus time! (@ Ringling Brothers Barnum And Bailey Circus) http://t.co/eK08CJSlij", "created_at": "2013-04-13T18:53:27", "screen_name": "tim846", "coordinates": {"type": "Point", "coordinates": [-77.30976195, 38.82660598]}},{"text": "ta querendo me amar e ta louquinha HUAHUAHUAHUA", "created_at": "2013-04-13T18:53:29", "screen_name": "itsadris", "coordinates": {"type": "Point", "coordinates": [-46.551669, -23.5769198]}},{"text": "Wes wes equipment plus 8 jadi 4 wes gak nang bakul iku maneh ternyata salah menilai orang aku ? :/", "created_at": "2013-04-13T18:53:32", "screen_name": "GuGuntz", "coordinates": {"type": "Point", "coordinates": [112.7355, -7.48092]}},{"text": "\"Don't listen to a word I say, the screams all sound the same.\"", "created_at": "2013-04-13T18:53:32", "screen_name": "BroAnneWoo", "coordinates": {"type": "Point", "coordinates": [-93.45916458, 35.46066899]}},{"text": "Ritardo \u00e8 il mio secondo nome ! #sapevatelo", "created_at": "2013-04-13T18:53:33", "screen_name": "federica_biondi", "coordinates": {"type": "Point", "coordinates": [12.25588638, 44.15409079]}},{"text": "I'm at Paraiso, Tabasco http://t.co/l4l1SZNqMF", "created_at": "2013-04-13T18:53:33", "screen_name": "GenyRicardez", "coordinates": {"type": "Point", "coordinates": [-93.2173454, 18.38967797]}},{"text": "@Shahar_yosef \u05d7\u05d7\u05d7\u05d7 \u05de\u05d9 \u05e9\u05d9\u05e7\u05e8 \u05e2\u05dc\u05d9\u05d9\u05da \u05db\u05db\u05d4 ?", "created_at": "2013-04-13T18:53:36", "screen_name": "OKaltman", "coordinates": {"type": "Point", "coordinates": [34.76758279, 32.02569937]}},{"text": "Bateria acabando buaaaaaaa", "created_at": "2013-04-13T18:53:36", "screen_name": "KauanyMarcella", "coordinates": {"type": "Point", "coordinates": [-39.03275527, -16.38561678]}},{"text": "@BabilomD turkiyenin tadi ba\u015fka", "created_at": "2013-04-13T18:53:37", "screen_name": "ozumm__", "coordinates": {"type": "Point", "coordinates": [33.60934, 40.6074]}},{"text": "I'm at Piramit Kafeterya w/ 2 others http://t.co/93BDkQxrIL", "created_at": "2013-04-13T18:53:38", "screen_name": "EsraEsen7", "coordinates": {"type": "Point", "coordinates": [32.5091486, 38.01595768]}},{"text": "@sw17ch @cartazio @ravi_mohan and then I tried -O, read up on it, and then asked @cartazio for help.", "created_at": "2013-04-13T18:53:38", "screen_name": "tunixman", "coordinates": {"type": "Point", "coordinates": [-117.78415232, 33.7270851]}},{"text": "Que aburrido d\u00eda!!!", "created_at": "2013-04-13T18:53:38", "screen_name": "MaryoryCorona", "coordinates": {"type": "Point", "coordinates": [-72.36963, 7.67674]}},{"text": "I'm at @HappyMoonsCafe (\u0130stanbul, T\u00fcrkiye) w/ 62 others http://t.co/mhuSuzz80q", "created_at": "2013-04-13T18:53:41", "screen_name": "berfinkrkc", "coordinates": {"type": "Point", "coordinates": [29.07667994, 40.96342745]}},{"text": "Con las botas puestas. En la vida no existe ni buena ni mala suerte, solo el trabajo refleja su vida.", "created_at": "2013-04-13T18:53:44", "screen_name": "guerreroconbota", "coordinates": {"type": "Point", "coordinates": [-74.07412481, 4.6288427]}},{"text": "I'm at Icon Brickell (Miami, FL) http://t.co/tQkr7eZDsQ", "created_at": "2013-04-13T18:53:47", "screen_name": "deanRiodice", "coordinates": {"type": "Point", "coordinates": [-80.18950893, 25.76897308]}},{"text": "@coopmeister93 @connorpogson home/away would be better, but it's been traditionally neutral", "created_at": "2013-04-13T18:53:47", "screen_name": "gerry1805", "coordinates": {"type": "Point", "coordinates": [-3.03714062, 53.90471952]}},{"text": "Sky high with @jessspittt  @jessica_shelby1 @breezyashbaby and little bit", "created_at": "2013-04-13T18:53:48", "screen_name": "sargent_matthew", "coordinates": {"type": "Point", "coordinates": [-86.69094072, 36.08799464]}},{"text": "Vou ficar velha gaga e as brs do Cear\u00e1 v\u00e3o continuar sendo reformadas etc etc etc", "created_at": "2013-04-13T18:53:51", "screen_name": "marimns", "coordinates": {"type": "Point", "coordinates": [-40.83502439, -3.12093318]}},{"text": "Exercises on a chair what a fucking crackpot", "created_at": "2013-04-13T18:53:52", "screen_name": "smittennnnn", "coordinates": {"type": "Point", "coordinates": [-4.78896829, 55.63953771]}},{"text": "@Richie854 dude I've been an okc fan since last year....", "created_at": "2013-04-13T18:53:53", "screen_name": "jacobordi", "coordinates": {"type": "Point", "coordinates": [-79.99052554, 43.26040868]}},{"text": "Tooooo Freaking Hungry!!!!!!!!!!!!", "created_at": "2013-04-13T18:53:54", "screen_name": "SexyBlaqkk", "coordinates": {"type": "Point", "coordinates": [-81.8005608, 27.7463101]}},{"text": "@27keli 3 to go now bro'", "created_at": "2013-04-13T18:54:02", "screen_name": "elamber10", "coordinates": {"type": "Point", "coordinates": [0.10787719, 51.43073312]}},{"text": "I'm at Ch\u00e1cara do Vale (Amparo) http://t.co/7wmVHfng2b", "created_at": "2013-04-13T18:54:02", "screen_name": "romarchi", "coordinates": {"type": "Point", "coordinates": [-46.86545, -22.726766]}},{"text": "Young scooter rite now", "created_at": "2013-04-13T18:54:07", "screen_name": "lickkmySNEAKERS", "coordinates": {"type": "Point", "coordinates": [-81.9817757, 35.06625447]}},{"text": "Minha m\u00e3e e minha irm\u00e3 foram buscar meu pai e \u00e9 pra mim arrumar a casa aiai", "created_at": "2013-04-13T18:54:08", "screen_name": "_BiiahGomees", "coordinates": {"type": "Point", "coordinates": [-46.6714383, -23.50615663]}},{"text": "#\u0627\u0644\u062c\u0646\u0627\u062f\u0631\u064a\u0629 \u0645\u0639\u0644\u064a\u0634 \u0642\u0627\u0639\u062f\u064a\u0646 \u064a\u0637\u0631\u062f\u0648\u0646 \u0627\u0644\u0644\u064a \u064a\u0623\u0645\u0631 \u0628 \u0627\u0644\u0645\u0639\u0631\u0648\u0641 \u0648\u064a\u062e\u0644\u0651\u0648\u0646 \u0627\u0644\u0645\u063a\u0646\u064a\u0651\u0647 !!! \u0645\u062a\u0623\u0643\u062f\u064a\u0646 \u0627\u0646\u0643\u0645 \u0645\u0633\u0644\u0645\u064a\u0646 !", "created_at": "2013-04-13T18:54:10", "screen_name": "LomyN", "coordinates": {"type": "Point", "coordinates": [46.7762, 24.58522]}},{"text": "Quero torta de morango!", "created_at": "2013-04-13T18:54:11", "screen_name": "Fe_michaeli", "coordinates": {"type": "Point", "coordinates": [-46.7409065, -23.447097]}},{"text": "acabou a luz hahaha", "created_at": "2013-04-13T18:54:11", "screen_name": "3dreamsdarapha", "coordinates": {"type": "Point", "coordinates": [-43.2268998, -22.90379288]}},{"text": ":) enjoying my favorite people! @ Wrigley Field http://t.co/A6SuxGEirD", "created_at": "2013-04-13T18:54:11", "screen_name": "AlexandraLekas", "coordinates": {"type": "Point", "coordinates": [-87.65547037, 41.94825587]}},{"text": "\u0425\u043e\u0447\u0435\u0442\u0441\u044f \u0446\u0432\u0435\u0442\u043e\u0432  \ue304\ue304\ue304", "created_at": "2013-04-13T18:54:12", "screen_name": "PolishaGri", "coordinates": {"type": "Point", "coordinates": [53.29261514, 56.87383007]}},{"text": "@__JasGotIt noooooooooo lol I don't think I can", "created_at": "2013-04-13T18:54:12", "screen_name": "KoverGrl1947", "coordinates": {"type": "Point", "coordinates": [-96.74967513, 32.91078554]}},{"text": "Apparently going to the doctor at 9:00 on a Saturday will make you sleep until 2:00.", "created_at": "2013-04-13T18:54:15", "screen_name": "marbear915", "coordinates": {"type": "Point", "coordinates": [-73.91182608, 42.64658426]}},{"text": "@SrUnlimited1 Gracias a ti por ser el mejor y por vivir en babia y no darte cuenta durante toda la semana con lo cantosos que hemos sido. LL", "created_at": "2013-04-13T18:54:15", "screen_name": "Lauastasio", "coordinates": {"type": "Point", "coordinates": [-3.5146427, 36.7497916]}},{"text": "Watching these niggas hoop", "created_at": "2013-04-13T18:54:17", "screen_name": "LD_Swavey", "coordinates": {"type": "Point", "coordinates": [-84.1756259, 33.921907]}},{"text": "@LucyOB you'll eat in the refectory between lectures .. The rest of the time will be spent ingesting alcohol", "created_at": "2013-04-13T18:54:18", "screen_name": "The_Verth", "coordinates": {"type": "Point", "coordinates": [-1.55125403, 54.95243099]}},{"text": "Tanning \ud83c\udf1e", "created_at": "2013-04-13T18:54:18", "screen_name": "ayyyy_minnie", "coordinates": {"type": "Point", "coordinates": [-115.1649573, 36.12589069]}},{"text": "@surelychan let's go ride til we leave", "created_at": "2013-04-13T18:54:18", "screen_name": "kaasheerzz", "coordinates": {"type": "Point", "coordinates": [-121.91808501, 37.4354541]}},{"text": "@Mari_8985 es un pueblo o en murcia", "created_at": "2013-04-13T18:54:20", "screen_name": "davidtorrico69", "coordinates": {"type": "Point", "coordinates": [-3.6541624, 40.1176698]}},{"text": "@naughtynorm just fighting etc being dicks #givinfootieabadname", "created_at": "2013-04-13T18:54:20", "screen_name": "babybint1", "coordinates": {"type": "Point", "coordinates": [-3.57045732, 50.47890137]}},{"text": "Puedo aparentar que esto no me interesa", "created_at": "2013-04-13T18:54:20", "screen_name": "Pamushca", "coordinates": {"type": "Point", "coordinates": [-99.3441, 20.05387]}},{"text": "@ferdiyett (destek) Bir yudum su icin sizde katkida bulunmak istemez misiniz? #NehirDegilKopruOlalim http://t.co/BYQds3mYSV", "created_at": "2013-04-13T18:54:20", "screen_name": "Daussila_", "coordinates": {"type": "Point", "coordinates": [5.37713562, 51.03486269]}},{"text": "@mr_fayed  \u0645\u0634\u0643\u0648\u0631 \u0639\u0644\u0649 \u0627\u0644\u062a\u063a\u0637\u064a\u0629 \u0627\u0644\u0645\u0645\u064a\u0632\u0629 \u064a\u0627\u0628\u0648\u0639\u0627\u062f\u0644. \u0627\u0644\u0644\u0647 \u064a\u0642\u0648\u064a\u0643 \u0627\u064a\u0647\u0627 \u0627\u0644\u0627\u0639\u0644\u0627\u0645\u064a \u0627\u0644\u0642\u0627\u062f\u0645 \u0627\u0644\u0649 \u0627\u0644\u0633\u0627\u062d\u0629 \u0627\u0644\u0627\u0639\u0644\u0627\u0645\u064a\u0629\ud83c\udf39\ud83c\udf39", "created_at": "2013-04-13T18:54:21", "screen_name": "arifalbadran", "coordinates": {"type": "Point", "coordinates": [46.64726391, 24.7495104]}},{"text": "En el nombre de la amada presencia de Dios Yo Soy invocamos a la llama violeta para que borre toda desarmonia.", "created_at": "2013-04-13T18:54:22", "screen_name": "metaconcoro", "coordinates": {"type": "Point", "coordinates": [-69.672805, 11.3867216]}},{"text": "@__shanonymous of nelligan?", "created_at": "2013-04-13T18:54:22", "screen_name": "TheJerseyKesha", "coordinates": {"type": "Point", "coordinates": [-76.08910583, 43.04949127]}},{"text": "@niiiicolexo What the hell is that \ud83d\ude33", "created_at": "2013-04-13T18:54:23", "screen_name": "carlysullivaan", "coordinates": {"type": "Point", "coordinates": [-71.93110786, 41.58106177]}},{"text": "The coonery I just witnessed man. I just can't why don't people respect themselves?", "created_at": "2013-04-13T18:54:30", "screen_name": "infinites0rrow", "coordinates": {"type": "Point", "coordinates": [-73.82496157, 42.68392438]}},{"text": "Heard she gotta thang for a nigga with that money", "created_at": "2013-04-13T18:54:30", "screen_name": "lotto_pick", "coordinates": {"type": "Point", "coordinates": [-84.21062379, 33.48645089]}},{"text": "@sillyhilly9 was in response to your tweet, why you in a swanky hotel??", "created_at": "2013-04-13T18:54:31", "screen_name": "mschwagr", "coordinates": {"type": "Point", "coordinates": [-77.08913779, 38.91660905]}},{"text": "@hayleyhiguain tell me..", "created_at": "2013-04-13T18:54:32", "screen_name": "OneLoveFCB", "coordinates": {"type": "Point", "coordinates": [12.4900746, 47.8000215]}},{"text": "People on BGT don't even have talent. Mothers shouldn't act like that #slag", "created_at": "2013-04-13T18:54:37", "screen_name": "GwynneBeth", "coordinates": {"type": "Point", "coordinates": [-1.23426357, 52.847123]}},{"text": "Whenever I curl my hair one side always turns out nice but the other looks ehh", "created_at": "2013-04-13T18:54:38", "screen_name": "kzzennn_", "coordinates": {"type": "Point", "coordinates": [-122.02467786, 37.97872827]}},{"text": "Almorzando con @jc_germanotta, Pia (@ Bravissimo) http://t.co/rmt2dYTnRe", "created_at": "2013-04-13T18:54:38", "screen_name": "pastelazoh", "coordinates": {"type": "Point", "coordinates": [-71.54898945, -32.99883266]}},{"text": "By jaysus if that was my mother!!! I'd fucking kill her !", "created_at": "2013-04-13T18:54:41", "screen_name": "Anna_24298", "coordinates": {"type": "Point", "coordinates": [-7.27270245, 53.32040885]}},{"text": "@dta_nigga stop it", "created_at": "2013-04-13T18:54:42", "screen_name": "RipRashad", "coordinates": {"type": "Point", "coordinates": [-95.37825837, 29.73228377]}},{"text": "I think people that go on #bgt forget that winning means you perform in front of the queen", "created_at": "2013-04-13T18:54:43", "screen_name": "MyNameIs_Jazmin", "coordinates": {"type": "Point", "coordinates": [-1.33587856, 54.78552477]}},{"text": "Somebody come get me", "created_at": "2013-04-13T18:54:44", "screen_name": "_LilMermaidd", "coordinates": {"type": "Point", "coordinates": [-95.73929408, 29.54062671]}},{"text": "Lawd Eli upstairs being pretty", "created_at": "2013-04-13T18:54:44", "screen_name": "TheyLove_Jass", "coordinates": {"type": "Point", "coordinates": [-76.73812931, 37.27628153]}},{"text": "Gak mungkin\"@BuatSeseorang: SatuKata #ArtiKesetiaan menurut kamu ....\"", "created_at": "2013-04-13T18:54:45", "screen_name": "mayy25maret", "coordinates": {"type": "Point", "coordinates": [104.80625, -2.96756]}},{"text": "Ah. Okay. Tapos? Tumbling ka.", "created_at": "2013-04-13T18:54:46", "screen_name": "dessbanaagxx", "coordinates": {"type": "Point", "coordinates": [121.0329, 14.47841375]}},{"text": "I'm at Boi &amp; Brasa Churrascaria (Caruaru, Pernambuco) w/ 3 others http://t.co/HzB21PzwUV", "created_at": "2013-04-13T18:54:48", "screen_name": "Dipaiva10", "coordinates": {"type": "Point", "coordinates": [-35.9751546, -8.25663487]}},{"text": "@ayieawie dekat rumah ni kau sorang je babi ! So samalah dengan kau BABI !", "created_at": "2013-04-13T18:54:49", "screen_name": "dDyBravadio", "coordinates": {"type": "Point", "coordinates": [101.5995, 3.10722]}},{"text": "\u0e2a\u0e31\u0e07\u0e04\u0e21\u0e08\u0e2d\u0e21\u0e1b\u0e25\u0e2d\u0e21......", "created_at": "2013-04-13T18:54:49", "screen_name": "tick2u", "coordinates": {"type": "Point", "coordinates": [105.8132953, 15.1160858]}},{"text": "Capa Case Carregador Bateria Extra Iphone !!! Quem quer na @janaamarques\u2026 http://t.co/xS2w90mqhG", "created_at": "2013-04-13T18:54:49", "screen_name": "LidianeLobato", "coordinates": {"type": "Point", "coordinates": [-43.95584488, -19.93349075]}},{"text": "Haha no. You don't even know the half of it. \ud83d\ude02", "created_at": "2013-04-13T18:54:50", "screen_name": "shelbysanderss_", "coordinates": {"type": "Point", "coordinates": [-86.37098151, 35.89251839]}},{"text": "ta td mundo indo embora ....", "created_at": "2013-04-13T18:54:50", "screen_name": "3dreamsdarapha", "coordinates": {"type": "Point", "coordinates": [-43.22690326, -22.90379313]}},{"text": "Why does it take so long for them to change my oil? \ud83d\ude12 #firstworldproblems", "created_at": "2013-04-13T18:54:55", "screen_name": "morganjones12", "coordinates": {"type": "Point", "coordinates": [-96.109477, 33.108689]}},{"text": "Now the @TigerWoods farce is out the way, I'm looking forward to a great night's golf! #themasters", "created_at": "2013-04-13T18:54:57", "screen_name": "Tom4Davies", "coordinates": {"type": "Point", "coordinates": [-1.9861816, 52.5411956]}}]