[{"text": "Cosas que odio y la impuntualidad.", "created_at": "2013-04-20T18:57:01", "screen_name": "hermosafabita", "coordinates": {"type": "Point", "coordinates": [-99.24716954, 19.60775584]}},{"text": "Yay!at my dads\ud83d\ude04\ud83d\udc4f", "created_at": "2013-04-20T18:57:01", "screen_name": "indianroxanne", "coordinates": {"type": "Point", "coordinates": [-118.3688075, 33.90431708]}},{"text": "@BaileyRyan8 I know huhh! About to get some angry texts.. Whatever! \ud83d\ude0f\u261d", "created_at": "2013-04-20T18:57:03", "screen_name": "brenduhh19", "coordinates": {"type": "Point", "coordinates": [-123.45256892, 48.11352935]}},{"text": "I can feel and see me losing weight. It feels amazing.", "created_at": "2013-04-20T18:57:03", "screen_name": "LikeTheBoobsHUH", "coordinates": {"type": "Point", "coordinates": [-81.76414126, 40.97878856]}},{"text": "Ckx http://t.co/4KigJtL9hB", "created_at": "2013-04-20T18:57:05", "screen_name": "DstsL", "coordinates": {"type": "Point", "coordinates": [2.5514752, 48.9557875]}},{"text": "@emperortokos bossman where are?", "created_at": "2013-04-20T18:57:07", "screen_name": "ikiss007", "coordinates": {"type": "Point", "coordinates": [6.34895285, 4.94911163]}},{"text": "I hate it when #csk just have hope and then jadeja had to hit those sixes!", "created_at": "2013-04-20T18:57:07", "screen_name": "TheBongHandle", "coordinates": {"type": "Point", "coordinates": [79.1630766, 12.9728102]}},{"text": "ol\u00e1 p vcs", "created_at": "2013-04-20T18:57:07", "screen_name": "chasingyoutommo", "coordinates": {"type": "Point", "coordinates": [-34.8401792, -7.0862893]}},{"text": "\"Sem sacanagem, \u00e9 preciso ter f\u00e9 pra viajar de Sacramente-Nazar\u00e9\" \ud83c\udfb6", "created_at": "2013-04-20T18:57:08", "screen_name": "gfroes_", "coordinates": {"type": "Point", "coordinates": [-48.46366843, -1.4162481]}},{"text": "@laurvonbismark es una verg\u00fcenza.para esta razon no vivo en Italia.no se puede cambiar.", "created_at": "2013-04-20T18:57:08", "screen_name": "tcogato", "coordinates": {"type": "Point", "coordinates": [-6.5648245, 37.0060372]}},{"text": "Ver a tus papas bailar regaetone es gracioso pero a la vez es feo._.", "created_at": "2013-04-20T18:57:12", "screen_name": "freddy_arod_13", "coordinates": {"type": "Point", "coordinates": [0.0, 0.0]}},{"text": "@FatimahDandan \u0627\u0644\u0641\u0633\u064a\u0648 \u0645\u0627\u062f\u0629 \u062a\u0646\u0627\u0642\u0636 \u0646\u0641\u0633\u0647\u0627", "created_at": "2013-04-20T18:57:13", "screen_name": "KhalidAssiry", "coordinates": {"type": "Point", "coordinates": [50.18342877, 26.20556366]}},{"text": "@BigChef86 my service is kinda low so my emails takin forever to send, but u can hear some of my work at http://t.co/GWuinqCmDn", "created_at": "2013-04-20T18:57:14", "screen_name": "T_RobDaProduca", "coordinates": {"type": "Point", "coordinates": [-117.91956158, 33.79959421]}},{"text": "Just another day.", "created_at": "2013-04-20T18:57:15", "screen_name": "oscargalaxy21", "coordinates": {"type": "Point", "coordinates": [-96.9748111, 32.7883018]}},{"text": "Kumrallar #birAd\u0131m\u00d6ndedir", "created_at": "2013-04-20T18:57:15", "screen_name": "PiyanciRed", "coordinates": {"type": "Point", "coordinates": [27.8124245, 41.1542434]}},{"text": "@dianabaal si s\u00faper urge nos ponemos de acuerdo por WA!! Te amo beb\u00e9!! \ud83d\ude09", "created_at": "2013-04-20T18:57:17", "screen_name": "MaFer_Ce", "coordinates": {"type": "Point", "coordinates": [-99.17433962, 19.33492995]}},{"text": "@quimdomenech en f\u00ecn no es el primer rid\u00ecculo que hace la prensa catalana", "created_at": "2013-04-20T18:57:17", "screen_name": "KnightOfZion", "coordinates": {"type": "Point", "coordinates": [-117.2652404, 34.0625601]}},{"text": "@TinaJaraRnRS Cuando vuelva por los madriles te pedir\u00e9 referencias de garitos donde oir buen rock. Que no sea el Harley Rock claro, jaja..", "created_at": "2013-04-20T18:57:18", "screen_name": "robermogan", "coordinates": {"type": "Point", "coordinates": [-15.7206037, 27.8877116]}},{"text": "2:03 Marquez", "created_at": "2013-04-20T18:57:21", "screen_name": "proc1", "coordinates": {"type": "Point", "coordinates": [-3.3794919, 54.7625929]}},{"text": "I'm at Parque Ceci Cunha (Arapiraca, AL) http://t.co/UVv271GUrX", "created_at": "2013-04-20T18:57:21", "screen_name": "NiqueSouza22", "coordinates": {"type": "Point", "coordinates": [-36.65735112, -9.75153587]}},{"text": "Jordan O'Keefe marry me", "created_at": "2013-04-20T18:57:22", "screen_name": "_mollybudd", "coordinates": {"type": "Point", "coordinates": [-0.78544267, 51.81069975]}},{"text": "Playing guess the tv theme game #gettingtoointoit", "created_at": "2013-04-20T18:57:23", "screen_name": "MissLauraBishop", "coordinates": {"type": "Point", "coordinates": [-0.39349515, 54.26290712]}},{"text": "\u0645\u0627\u0631\u0633\u064a\u0644\u0648 \ud83d\udd04 \u0641\u0647\u062f \n\u0648\u0641\u0647\u0645\u0648\u0647\u0627 !!\n\ud83d\ude2d", "created_at": "2013-04-20T18:57:24", "screen_name": "fff_almotawa", "coordinates": {"type": "Point", "coordinates": [48.00598877, 29.2805033]}},{"text": "I can't be every nigga role model", "created_at": "2013-04-20T18:57:26", "screen_name": "AkBeeezy", "coordinates": {"type": "Point", "coordinates": [-79.20575982, 37.37384508]}},{"text": "I'm at @HappyMoonsCafe (\u0130stanbul, T\u00fcrkiye) w/ 51 others http://t.co/Hk9sDZ9aVB", "created_at": "2013-04-20T18:57:26", "screen_name": "doganozge", "coordinates": {"type": "Point", "coordinates": [29.07667994, 40.96342745]}},{"text": "amo a @claudiaCG98 es la mejor", "created_at": "2013-04-20T18:57:26", "screen_name": "canilladj", "coordinates": {"type": "Point", "coordinates": [-5.9996371, 37.3694535]}},{"text": "@valiquis moro em campo grande,e nem so gata!", "created_at": "2013-04-20T18:57:27", "screen_name": "LaryCampbell", "coordinates": {"type": "Point", "coordinates": [-54.6230713, -20.4769539]}},{"text": "Comprei roupinhas pra mim agr vou na renner comprar roupas pro papi", "created_at": "2013-04-20T18:57:28", "screen_name": "leticiac__", "coordinates": {"type": "Point", "coordinates": [-51.9304866, -23.4242889]}},{"text": "@NguyenEmmie Mdddrr si il est gay ? :(", "created_at": "2013-04-20T18:57:29", "screen_name": "Mohamed_77184", "coordinates": {"type": "Point", "coordinates": [2.6255579, 48.9456613]}},{"text": "@AnaelJunior_27 ou ?! OMG !!", "created_at": "2013-04-20T18:57:29", "screen_name": "FatOuLoove", "coordinates": {"type": "Point", "coordinates": [7.28589974, 43.72725842]}},{"text": "@artemblayn \u043f\u0440\u043e\u0441\u0442\u043e \u043f\u043e\u0437\u0432\u0430\u043b", "created_at": "2013-04-20T18:57:30", "screen_name": "MaratAyr", "coordinates": {"type": "Point", "coordinates": [37.55222755, 55.79181376]}},{"text": "\"@ilkimtorkun: Acil Ronaldo Ve Draxler oyuna girmeli. RealSchalke yeniliyor.\"", "created_at": "2013-04-20T18:57:32", "screen_name": "buryilrow", "coordinates": {"type": "Point", "coordinates": [30.4119808, 40.7437528]}},{"text": "@katehwalts he's from city, I'm friends with him on Facebook ;)", "created_at": "2013-04-20T18:57:33", "screen_name": "chloehenryx", "coordinates": {"type": "Point", "coordinates": [-7.35634949, 54.95491042]}},{"text": "I'm at Sailor's Beach Club lojman no:21 (Kemer) http://t.co/zU6Nio0BJw", "created_at": "2013-04-20T18:57:37", "screen_name": "umutsunay", "coordinates": {"type": "Point", "coordinates": [30.5707, 36.574216]}},{"text": "\u0645\u062d\u0634\u0634 \u0633\u0623\u0644\u0648\u0647 \u0644\u0648 \u062e\u0644\u0635 \u0627\u0644\u0646\u0641\u0637 \u0648\u0645\u0627\u0641\u064a \u0628\u0646\u0632\u064a\u0646 \u0644\u0633\u064a\u0627\u0631\u0627\u062a\u0646\u0627 \u0648\u0634 \u0628\u0646\u0633\u0648\u064a !!\u061f \u0642\u0627\u0644:\u0639\u0627\u062f \u0627\u0644\u0634\u0643\u0648\u0649 \u0644\u0644\u0647 \u0645\u0627\u0644\u0646\u0627 \u063a\u064a\u0631 \u0627\u0644\u062a\u0643\u0627\u0633\u064a \u263a\n\n\u0645\u062e\u062f\u0631\u0627\u062a \u0631\u0633\u0645\u064a \ud83d\ude01\n\u0647\u0647\u0647\u0647\u0647\u0647\u0647\u0647\u0647\u0647\u0647\u0647\u0647\u0647\u0647\u0647\u0647\u0647\u0647", "created_at": "2013-04-20T18:57:40", "screen_name": "hammoud1414", "coordinates": {"type": "Point", "coordinates": [40.19747618, 29.92317962]}},{"text": "Helal s\u00fct emmis k\u0131z http://t.co/9JUqWKyDf5", "created_at": "2013-04-20T18:57:40", "screen_name": "drbrocker", "coordinates": {"type": "Point", "coordinates": [35.5297058, 38.726244]}},{"text": "N\u00e3o h\u00e1", "created_at": "2013-04-20T18:57:45", "screen_name": "falachico", "coordinates": {"type": "Point", "coordinates": [-47.8008202, -15.6429987]}},{"text": "@EugCipolla l'hanno beccato all'auto grill di roncobilaccio a giocare al gratta e vinci #retromarciasuroma", "created_at": "2013-04-20T18:57:45", "screen_name": "Brandodec", "coordinates": {"type": "Point", "coordinates": [9.18596814, 45.45834479]}},{"text": "#DallasBIG number 15: Klyde Warren Park! http://t.co/sXLTjCKrjQ", "created_at": "2013-04-20T18:57:45", "screen_name": "taylorfausak", "coordinates": {"type": "Point", "coordinates": [-96.80049839, 32.79045754]}},{"text": "Hi\u00e7 bu kadar rencide olmam\u0131st\u0131mmm laaan twitter neyin kafas\u0131n\u0131 yas\u0131yon amk :D http://t.co/NUFhxPh0Vn", "created_at": "2013-04-20T18:57:47", "screen_name": "HejaKupik", "coordinates": {"type": "Point", "coordinates": [0.0, 0.0]}},{"text": "Cada um fala uma coisa nessa porra", "created_at": "2013-04-20T18:57:50", "screen_name": "3dolaris", "coordinates": {"type": "Point", "coordinates": [-46.8591836, -23.221169]}},{"text": "Ainda vai fazer um mes sem o meu Will aqui e parece uma eternidade...", "created_at": "2013-04-20T18:57:53", "screen_name": "Irayff", "coordinates": {"type": "Point", "coordinates": [-43.425648, -22.816093]}},{"text": "Az-psv belangrijke wedstrijd", "created_at": "2013-04-20T18:57:55", "screen_name": "silvaanj_010", "coordinates": {"type": "Point", "coordinates": [3.7320873, 51.6841931]}},{"text": "Aquellos tiempos en que se terminaban los miedos cuando un amigo te decia #notieneshuevos", "created_at": "2013-04-20T18:57:56", "screen_name": "adrianrodri25", "coordinates": {"type": "Point", "coordinates": [-0.476608, 39.426325]}},{"text": "http://t.co/PjaEpwhKYR", "created_at": "2013-04-20T18:57:57", "screen_name": "DjPedroAry", "coordinates": {"type": "Point", "coordinates": [-8.7623854, 41.3797025]}},{"text": "#NP El Capo 88*  Black Jonas Point", "created_at": "2013-04-20T18:57:58", "screen_name": "Starling_jc", "coordinates": {"type": "Point", "coordinates": [-69.7822316, 18.5277838]}},{"text": "It was winter yesterday and now it's like summer today.. #OnlyInNewfoundland", "created_at": "2013-04-20T18:57:58", "screen_name": "CassandraYoung_", "coordinates": {"type": "Point", "coordinates": [-58.43490028, 48.50874358]}},{"text": "One of the best NationalAnthems I ever saw. #ByBostonsSide #Boston #KNICKSTAPE http://t.co/4j4Fx1wp0C", "created_at": "2013-04-20T18:57:58", "screen_name": "p2theslingshot", "coordinates": {"type": "Point", "coordinates": [-73.99350059, 40.75086209]}},{"text": "\"@finkowska: Hey guyz hope u all love my new ink. http://t.co/8ZTKn8WIBf\"that's a poor joke right?? It washes off dont it?? :S", "created_at": "2013-04-20T18:57:59", "screen_name": "freeb47", "coordinates": {"type": "Point", "coordinates": [-0.3769096, 51.4491347]}},{"text": "#\u0623\u0633\u0631\u0639_\u0634\u064a_\u0634\u0641\u062a\u0647_\u0641\u064a_\u062d\u064a\u0627\u062a\u064a \u0635\u0627\u0631\u0648\u062e \u0627\u0644\u0645\u0648\u0644\u062f \u0628\u0627\u0644\u0647\u0644\u0627\u0644 !", "created_at": "2013-04-20T18:58:01", "screen_name": "turkiBinN9r", "coordinates": {"type": "Point", "coordinates": [46.87216, 24.67655]}},{"text": "#ASSERFC", "created_at": "2013-04-20T18:58:01", "screen_name": "PierrickLM", "coordinates": {"type": "Point", "coordinates": [1.62109577, 50.78730726]}},{"text": "Ai dps vou p mercado ))=", "created_at": "2013-04-20T18:58:02", "screen_name": "orrapati", "coordinates": {"type": "Point", "coordinates": [-46.85301285, -23.25265495]}},{"text": "\"@SincerelyTumblr: sometimes i just wanna leave everything behind and start fresh somewhere far away from all the bullshit\"", "created_at": "2013-04-20T18:58:02", "screen_name": "jpachxo", "coordinates": {"type": "Point", "coordinates": [-71.1847447, 41.6769956]}},{"text": "I just really, really, really, really, really, really, really, really,  really, really, really, really, really, really, really like you.", "created_at": "2013-04-20T18:58:03", "screen_name": "LottePayneXxx", "coordinates": {"type": "Point", "coordinates": [5.4008233, 51.9099505]}},{"text": "@DimaFRST @artemblayn \u043d\u0443 \u0432\u044b \u0447\u0443\u043c\u0430 \u0440\u0435\u0431\u044f\u0442.\u0430\u0445\u0445\u0445\u0430\u0445", "created_at": "2013-04-20T18:58:04", "screen_name": "nd_sun", "coordinates": {"type": "Point", "coordinates": [39.7305542, 54.6419383]}},{"text": "dai o Lucas vai l\u00e1, acorda a nine e pergunta se ela ta dormindo ushuahauhaihshba", "created_at": "2013-04-20T18:58:04", "screen_name": "karinavalandro", "coordinates": {"type": "Point", "coordinates": [-51.9792476, -29.461255]}},{"text": "Helloooo Jordan \ud83d\ude09\ud83d\udc4c", "created_at": "2013-04-20T18:58:04", "screen_name": "leoniemcsorleyx", "coordinates": {"type": "Point", "coordinates": [-3.30010322, 57.64158014]}},{"text": "@LaRedCaracol pat\u00e9tico", "created_at": "2013-04-20T18:58:05", "screen_name": "linamielesgo", "coordinates": {"type": "Point", "coordinates": [-74.03282901, 4.71770282]}},{"text": "#vailuan", "created_at": "2013-04-20T18:58:06", "screen_name": "morfimchristian", "coordinates": {"type": "Point", "coordinates": [-48.5732987, -27.594443]}},{"text": "Hahahahaaa , hancur handphone galaxy nyee aku campak ! ! Puashati ! !", "created_at": "2013-04-20T18:58:06", "screen_name": "Weda_lalaala", "coordinates": {"type": "Point", "coordinates": [100.50856, 5.66634]}},{"text": "@AnderArra paaull :) tampoko e kambiiau tanto eeh jjj", "created_at": "2013-04-20T18:58:07", "screen_name": "Irato9", "coordinates": {"type": "Point", "coordinates": [-2.1928899, 43.0448249]}},{"text": "@JuanjoAkonkawa JAJAJAJJAAJAJJAJAJAJAJAJAJAJJAJAJAJAJAJAJA PERO SI TE HE BUSCAO CHORVA JAJAJAJAJJAJAJAJAJAJA", "created_at": "2013-04-20T18:58:07", "screen_name": "doscuatrosietee", "coordinates": {"type": "Point", "coordinates": [-2.4475235, 36.8567289]}},{"text": "I'm at Sakal (Ankara, T\u00fcrkiye) w/ 16 others http://t.co/cMet5lTZMR", "created_at": "2013-04-20T18:58:10", "screen_name": "selinusdt", "coordinates": {"type": "Point", "coordinates": [32.85845518, 39.90914781]}},{"text": "@snipeyhead That\u2019s a valid interpretation of love, but I prefer the one that views love not as a feeling, but as a pattern of real actions.", "created_at": "2013-04-20T18:58:12", "screen_name": "zekeweeks", "coordinates": {"type": "Point", "coordinates": [-59.57395978, 13.06755229]}},{"text": "@Itsme_carvie dun worry ka..everything will be alright. .", "created_at": "2013-04-20T18:58:14", "screen_name": "ilagurl08", "coordinates": {"type": "Point", "coordinates": [103.8032135, 1.5898868]}},{"text": "@alexperez254 just alittle aha if I saw the actual food I would have unfollowed and blocked you \ud83d\ude02\ud83d\ude2d", "created_at": "2013-04-20T18:58:14", "screen_name": "lovechaunesey", "coordinates": {"type": "Point", "coordinates": [-97.58241101, 30.57034615]}},{"text": "Hoje eu acordei com uma vontade enorme de sair e andar sem dire\u00e7\u00e3o, sem destino e sem medo da morte...", "created_at": "2013-04-20T18:58:14", "screen_name": "hingreed", "coordinates": {"type": "Point", "coordinates": [-34.930666, -8.0379446]}},{"text": "I honestly should have listened to everyone told I was stupid for loving you! I would have saved me a heart ache", "created_at": "2013-04-20T18:58:15", "screen_name": "CheyNevaChilln_", "coordinates": {"type": "Point", "coordinates": [-74.52198381, 39.39219749]}},{"text": "@JautJurad ya te vale.ya no voy a verte mas.k esaboria eres hija", "created_at": "2013-04-20T18:58:16", "screen_name": "megamaxidg", "coordinates": {"type": "Point", "coordinates": [-4.8621367, 38.3817717]}},{"text": "@Clemsoss mdr t es qui ?", "created_at": "2013-04-20T18:58:16", "screen_name": "Sua_Maesta_", "coordinates": {"type": "Point", "coordinates": [0.33287203, 44.1312983]}},{"text": "This guys voice! #BGT", "created_at": "2013-04-20T18:58:16", "screen_name": "yelyahgina", "coordinates": {"type": "Point", "coordinates": [0.01747, 51.38232]}},{"text": "O meu \u00faltimo RT... JAJAJAJ", "created_at": "2013-04-20T18:58:19", "screen_name": "UxiaMeis", "coordinates": {"type": "Point", "coordinates": [-79.38149678, 43.76654071]}},{"text": "\u0e2b\u0e21\u0e14\u0e2a\u0e34\u0e49\u0e19! @ Moo Ban Chomplern River Loft http://t.co/FhV4f4A4kh", "created_at": "2013-04-20T18:58:20", "screen_name": "tonteay", "coordinates": {"type": "Point", "coordinates": [100.46775758, 13.86888473]}},{"text": "@cfcdbanks yup even I remember that!", "created_at": "2013-04-20T18:58:20", "screen_name": "hillmania", "coordinates": {"type": "Point", "coordinates": [-0.70567851, 51.53315905]}},{"text": "My friends hack my twitter -.-", "created_at": "2013-04-20T18:58:20", "screen_name": "MarwanShukri", "coordinates": {"type": "Point", "coordinates": [100.2696591, 5.3287552]}},{"text": "Just posted a photo @ Rite Aid http://t.co/SRN5qCDr5A", "created_at": "2013-04-20T18:58:21", "screen_name": "mydemisee", "coordinates": {"type": "Point", "coordinates": [-118.4680991, 34.25873251]}},{"text": "Nunca estaria en algo con vos :/", "created_at": "2013-04-20T18:58:22", "screen_name": "DaniMarletto", "coordinates": {"type": "Point", "coordinates": [-58.6707, -34.65782]}},{"text": "@rodimusprime http://t.co/6d3BZA4kEl Oh Florida.", "created_at": "2013-04-20T18:58:22", "screen_name": "DannyDarkspace", "coordinates": {"type": "Point", "coordinates": [-0.0660847, 51.460328]}},{"text": "Happy Birthday to the biggest pothead i know!  Timmmmy (:", "created_at": "2013-04-20T18:58:23", "screen_name": "xoxo_nashi", "coordinates": {"type": "Point", "coordinates": [-82.41978565, 29.62813317]}},{"text": "How dare you!!!!!!!!!!", "created_at": "2013-04-20T18:58:24", "screen_name": "garcia123lee", "coordinates": {"type": "Point", "coordinates": [-97.8841901, 27.5251641]}},{"text": "I'm at @Record_Theatre (Amherst, NY) http://t.co/FlnfeSUray", "created_at": "2013-04-20T18:58:29", "screen_name": "ryantaughrin", "coordinates": {"type": "Point", "coordinates": [-78.81866455, 42.9582167]}},{"text": "Twam ii miiss #DeDe :((((((((('", "created_at": "2013-04-20T18:58:30", "screen_name": "DaddiiFreshz", "coordinates": {"type": "Point", "coordinates": [-77.33763232, 25.05804256]}},{"text": "Estou aqui p dizer q eu jamais imaginei Er vc sofrendo aq", "created_at": "2013-04-20T18:58:30", "screen_name": "EduTudoPorVoce", "coordinates": {"type": "Point", "coordinates": [-43.26715514, -22.88248726]}},{"text": "@Instagrameliaa hahaha I still have that video.", "created_at": "2013-04-20T18:58:32", "screen_name": "kyleprecious", "coordinates": {"type": "Point", "coordinates": [-147.79022422, 64.83853749]}},{"text": "@ashotog \u0438\u0434\u0451\u043c \u0432 \u0433\u043e\u0441\u0442\u0438\u043d\u0438\u0446\u0443, 15-20 \u043c\u0438\u043d\u0443\u0442", "created_at": "2013-04-20T18:58:33", "screen_name": "mgerasimov", "coordinates": {"type": "Point", "coordinates": [20.46238267, 44.81580681]}},{"text": "Oh shit, happy birthday Hitler", "created_at": "2013-04-20T18:58:34", "screen_name": "partyboytr0y", "coordinates": {"type": "Point", "coordinates": [-77.49430353, 43.11266958]}},{"text": "#californiagirl \u2600 #querico Aiiiiii aiiii aiii @ Babe Cave \ud83c\udf78 http://t.co/shuuvpXJQD", "created_at": "2013-04-20T18:58:34", "screen_name": "Ivannnalickyou", "coordinates": {"type": "Point", "coordinates": [-117.53383333, 33.984]}},{"text": "Enserio? Tengo que aguantar esto? Me niego \ud83d\ude21", "created_at": "2013-04-20T18:58:34", "screen_name": "milhorascontigo", "coordinates": {"type": "Point", "coordinates": [-6.75080407, 37.57246109]}},{"text": "Kocalimde rt almis saygilar kankacim :D", "created_at": "2013-04-20T18:58:37", "screen_name": "islamsahin61", "coordinates": {"type": "Point", "coordinates": [29.0771356, 41.0262533]}},{"text": "Jk I'm definetly saving it for the beach", "created_at": "2013-04-20T18:58:38", "screen_name": "TaliaRoque", "coordinates": {"type": "Point", "coordinates": [-80.4225103, 25.683725]}},{"text": "@vezirogluhalil bilidim bilidiimm :) gekas demi\u015ftimm :) @firat3458", "created_at": "2013-04-20T18:58:41", "screen_name": "ciwanseho", "coordinates": {"type": "Point", "coordinates": [29.88038148, 40.76032119]}},{"text": "Love my best friend \ud83d\ude0d", "created_at": "2013-04-20T18:58:41", "screen_name": "meerkaatt", "coordinates": {"type": "Point", "coordinates": [-1.03390339, 50.84502527]}},{"text": "@chickenscratch in Dallas Texas http://t.co/wUc1vZrhpR", "created_at": "2013-04-20T18:58:44", "screen_name": "GORDOIII", "coordinates": {"type": "Point", "coordinates": [-96.83158586, 32.77257454]}},{"text": "Twitter is the only place you will find people interested in how miserable you are.", "created_at": "2013-04-20T18:58:45", "screen_name": "LuminousAvenger", "coordinates": {"type": "Point", "coordinates": [-80.1888713, 26.1601611]}},{"text": "\u0645\u0627\u062a\u0634 \u0627\u0644\u0632\u0645\u0627\u0644\u0643 \u0627\u0647\u0645 \u0645\u0646 \u0643\u0644\u0627\u0645\u0643 #\u0645\u0631\u0633\u0649 #\u0627\u0644\u0631\u0626\u064a\u0633", "created_at": "2013-04-20T18:58:45", "screen_name": "OmarEmad_27", "coordinates": {"type": "Point", "coordinates": [31.00292463, 30.01477412]}},{"text": "@Koe_Hugo @lipego_1bj to sem carteirinha,vc compra o meu entao ?", "created_at": "2013-04-20T18:58:46", "screen_name": "Ilsso", "coordinates": {"type": "Point", "coordinates": [-40.38802464, -20.34807924]}},{"text": "Como nadie le pega al arcooooo!!!", "created_at": "2013-04-20T18:58:47", "screen_name": "ChanaJavier", "coordinates": {"type": "Point", "coordinates": [-70.62646893, -33.47903107]}},{"text": "@EdennHopee  cause I think your cool!!  \ud83d\ude02", "created_at": "2013-04-20T18:58:47", "screen_name": "_Ghost_Child_", "coordinates": {"type": "Point", "coordinates": [-82.67440425, 38.53361208]}},{"text": "Jodios posers pautosos de mierda, v\u00e1yanse con su 4/20 al carajo.", "created_at": "2013-04-20T18:58:48", "screen_name": "MisterGuevo", "coordinates": {"type": "Point", "coordinates": [-97.13291233, 32.83382453]}},{"text": "@lenka_tishenko \u043f\u0445\u0445\u0430\u0430\u0445\u0445\u0430\u0445\u0430\u0445\u0430\u0445))", "created_at": "2013-04-20T18:58:50", "screen_name": "TihonovaNasty", "coordinates": {"type": "Point", "coordinates": [46.04439025, 51.52979488]}},{"text": "Io stasera voglio uscire, ok? okay diocane", "created_at": "2013-04-20T18:58:50", "screen_name": "sadasdeath", "coordinates": {"type": "Point", "coordinates": [8.6199395, 47.6880616]}},{"text": "\u0647\u0646\u0627\u0643 \u0645\u0646 \u064a\u062d\u0628\u0643 \u0628\u0635\u0645\u062a \u0648\u064a\u062d\u062a\u0631\u0645\u0643 \u0628\u0635\u0645\u062a \u0648\u064a\u062a\u0645\u0646\u0627\u0643 \u0628\u064a\u0646\u0647 \u0648\u0628\u064a\u0646 \u0646\u0641\u0633\u0647 \u0648\u064a\u0628\u0639\u062f \u062d\u064a\u0646 \u064a\u0631\u0627\u0643 \u0645\u0634\u063a\u0648\u0644\u0627\u064b \u0648\u064a\u0643\u062a\u0641\u064a \u0628\u0627\u0644\u062d\u0628 \u0641\u0642\u0637 \u062d\u062a\u0649 \u0644\u0648 \u0643\u0627\u0646 \u0642\u0644\u0628\u0647 \u064a\u062a\u0623\u0644\u0645 \u0644\u0623\u062c\u0644\u0643..~", "created_at": "2013-04-20T18:58:50", "screen_name": "a_asayel", "coordinates": {"type": "Point", "coordinates": [39.19156, 21.54538]}},{"text": "\u0646\u062d\u0628\u0652 \ufe82\u0644\u062f\u0651\u0627\u0631 \u0644\u064a\u0640\ufbb1 \u0641\u064a\u0647\u0622 \u0639\u0631\u0641\u0646\u0622\u06b3\u0645. .         \u0648\u064f\u0646\u0639\u0634\u064e\u0642 \u0633\u0622\u0639\u062a\u0646\u0652 \u0641\u064a\u06be\u0653\u0622 \ufb60\ufedf\ufb51\u0642\u0642\u064a\u0646\u0625 \u2665!", "created_at": "2013-04-20T18:58:52", "screen_name": "mimiah180", "coordinates": {"type": "Point", "coordinates": [55.94403, 25.7313]}},{"text": "@jaaayperkins don't fucking talk to me. when you're ready to be here for me, call me. Im fuckin suffering here and you don't even realize it", "created_at": "2013-04-20T18:58:52", "screen_name": "_iridiannnnn", "coordinates": {"type": "Point", "coordinates": [-95.5605012, 29.6059975]}},{"text": "\u0627\u0644\u062c\u0644\u0648\u0633 \u0639\u0644\u0649 \u0643\u0646\u0628 \u062c\u0644\u062f \u064a\u062c\u0644\u0628 \u0627\u0644\u0643\u062b\u064a\u0631 \u0645\u0646 \u0627\u0644\u0627\u062d\u0631\u0627\u062c \u0648\u0633\u0648\u0621 \u0627\u0644\u0641\u0647\u0645 \u064a\u0627\u062c\u0645\u0627\u0639\u0647", "created_at": "2013-04-20T18:58:57", "screen_name": "Rawwannnn", "coordinates": {"type": "Point", "coordinates": [46.83842, 24.58045]}},{"text": "@TheRealVRoseG love you voopy", "created_at": "2013-04-20T18:58:57", "screen_name": "drummamamma", "coordinates": {"type": "Point", "coordinates": [-73.81222087, 40.69481471]}},{"text": "Alalla pur\u00e9e c quoi ce truc #H50", "created_at": "2013-04-20T18:58:59", "screen_name": "Believes_In_U", "coordinates": {"type": "Point", "coordinates": [5.37451252, 43.29921138]}},{"text": "I'm at @StarbucksTr (\u0130stanbul, T\u00fcrkiye) w/ 15 others http://t.co/FhojBd5NPe", "created_at": "2013-04-20T18:58:59", "screen_name": "RhYlmz", "coordinates": {"type": "Point", "coordinates": [28.88631821, 40.99802456]}},{"text": "por que minha m\u00e3e n\u00e3o morre ? nossa que nojo que tenho dela", "created_at": "2013-04-20T18:58:59", "screen_name": "naboabubuque", "coordinates": {"type": "Point", "coordinates": [-51.1599018, -30.026681]}},{"text": "First game of nba playoff @celtics  and @nyknicks  game on peace #playoffs", "created_at": "2013-04-20T18:59:00", "screen_name": "keshkianwei", "coordinates": {"type": "Point", "coordinates": [101.90047365, 2.7380886]}},{"text": "@CHRISrules_ u going?", "created_at": "2013-04-20T18:59:01", "screen_name": "ERNIEkilledBERT", "coordinates": {"type": "Point", "coordinates": [-80.71771622, 41.12080757]}},{"text": "I'm at Atabek Bloklari http://t.co/ckkqFlEnGJ", "created_at": "2013-04-20T18:59:02", "screen_name": "Brsbbcn", "coordinates": {"type": "Point", "coordinates": [28.88750664, 41.01369772]}},{"text": "tengok ceramah UAI takdi .", "created_at": "2013-04-20T18:59:08", "screen_name": "idenishhearey", "coordinates": {"type": "Point", "coordinates": [101.4767025, 3.277685]}},{"text": "Luuuuuv \u2665\u2665 (@ Joe Pena's) http://t.co/KtMnKzd0su", "created_at": "2013-04-20T18:59:10", "screen_name": "tonydeevine", "coordinates": {"type": "Point", "coordinates": [9.16753877, 45.45517618]}},{"text": "I'm at United States Post Office (Oak Harbor, WA) http://t.co/HiOlWZIcqp", "created_at": "2013-04-20T18:59:11", "screen_name": "FitMommaDuble", "coordinates": {"type": "Point", "coordinates": [-122.65416697, 48.28876631]}},{"text": "Az \u00f6nce bir foto\u011fraf payla\u015ft\u0131 @ Feneryolu http://t.co/HGTsAGuVDE", "created_at": "2013-04-20T18:59:12", "screen_name": "asliserindag", "coordinates": {"type": "Point", "coordinates": [29.04958108, 40.98114805]}},{"text": "#offline . Bye ;)", "created_at": "2013-04-20T18:59:13", "screen_name": "Darsun_Malik1D", "coordinates": {"type": "Point", "coordinates": [103.8738723, 1.4964275]}},{"text": "You don't really know how bad you've been treated until someone treats you incredibly. And vice versa, I'm sure.", "created_at": "2013-04-20T18:59:14", "screen_name": "kkcherie", "coordinates": {"type": "Point", "coordinates": [-114.15452711, 51.08952573]}},{"text": "I've just fallen in love with Jordan O'Keefe. Obviously nothing to do with the One Direction song choice...(actually isn't this time) #BGT", "created_at": "2013-04-20T18:59:14", "screen_name": "XxHayleyJxX", "coordinates": {"type": "Point", "coordinates": [-2.38460166, 53.06008465]}},{"text": "I've got 99 donuts 'cause a bitch ate one", "created_at": "2013-04-20T18:59:14", "screen_name": "kirsten_rangel", "coordinates": {"type": "Point", "coordinates": [-81.80050219, 26.44735023]}},{"text": "\u0627\u0644\u0646\u062c\u0627\u062d \u0627\u0644\u0648\u062d\u064a\u062f \u0641\u064a \u0627\u0644\u062d\u064a\u0627\u0629 \u0647\u0648 \u0623\u0646 \u062a\u0633\u062a\u0637\u064a\u0639 \u0623\u0646 \u062a\u062d\u064a\u0627 \u062d\u064a\u0627\u062a\u0643 \u0628\u0627\u0644\u0637\u0631\u064a\u0642\u0629 \u0627\u0644\u062a\u064a \u062a\u0631\u064a\u062f\u0647\u0627!\"", "created_at": "2013-04-20T18:59:15", "screen_name": "Omar_algnobe", "coordinates": {"type": "Point", "coordinates": [44.0561, 26.37804]}},{"text": "I'm at Centre Bell for @CanadiensMTL vs @washcaps (Montr\u00e9al, QC) w/ 3 others http://t.co/64imogDGgf", "created_at": "2013-04-20T18:59:15", "screen_name": "obenk", "coordinates": {"type": "Point", "coordinates": [-73.56930256, 45.49599968]}},{"text": "Mon pote un jour il \u00e9tait dans un \u00e9tat hors du commun, il ma dis j'te fait peur ? J'ai dis nan il a dis ba tu devrais je vais te d\u00e9foncer", "created_at": "2013-04-20T18:59:15", "screen_name": "HakimStZ", "coordinates": {"type": "Point", "coordinates": [2.20491435, 49.01633199]}},{"text": "\u0644\u0645 \u0627\u0639\u062c\u0628\u0643 ! \u0647\u0647\u0647\u06c1 \u0639\u0641\u0648\u0627\u064b \u0645\u0646 \u0627\u0646\u062a \u060c \u0644\u0627 \u0648\u0627\u0644\u0644\u0647 \u0635\u062c \u0635\u062c \u0645\u0646\u0648 \u0627\u0646\u062a \u263a", "created_at": "2013-04-20T18:59:16", "screen_name": "Its_Showmy", "coordinates": {"type": "Point", "coordinates": [55.46391, 25.36098]}},{"text": "@Megan_Lawson_13 he's hot, Irish and plays guitar, what's not to love, ae?! Plus he just sang One Direction better than they do!! x", "created_at": "2013-04-20T18:59:18", "screen_name": "DannielleTWx", "coordinates": {"type": "Point", "coordinates": [-4.1668665, 55.7748053]}},{"text": "When \"\u0622\u0647 \u0648 \u0645\u0627\u0644\u0647\" is the best answer.", "created_at": "2013-04-20T18:59:22", "screen_name": "CHARY_Elhwety", "coordinates": {"type": "Point", "coordinates": [29.9861599, 31.2592727]}},{"text": "Turn up in the city!!", "created_at": "2013-04-20T18:59:26", "screen_name": "Vice_Roy", "coordinates": {"type": "Point", "coordinates": [-74.0153428, 40.70685465]}},{"text": "S/O to my team for winning 1st place lol \u261d @ Holiday Inn Express and Suites http://t.co/gMf6z90E0Y", "created_at": "2013-04-20T18:59:28", "screen_name": "Innato_we_trust", "coordinates": {"type": "Point", "coordinates": [-73.75506864, 42.76146859]}},{"text": "@AnaHissa elas est\u00e3o lutando agora Ana", "created_at": "2013-04-20T18:59:28", "screen_name": "dudutatame", "coordinates": {"type": "Point", "coordinates": [-43.22917269, -22.91412749]}},{"text": "J'\u00e9tait vraiment fatigu\u00e9 je me suis endormie", "created_at": "2013-04-20T18:59:29", "screen_name": "Manon_Sadi", "coordinates": {"type": "Point", "coordinates": [2.43797, 48.7029226]}},{"text": "Almuerzo de despedida a mi madre!! (@ Parrilladas Argentina w/ 2 others) http://t.co/o9ScEVfgvu", "created_at": "2013-04-20T18:59:29", "screen_name": "Patulary", "coordinates": {"type": "Point", "coordinates": [-70.66904188, -33.40745053]}},{"text": "Wind 1.6 mph NW. Barometer 29.98 in, Falling. Temperature 74.3\u00b0F. Rain today 0.00 in. Humidity 14%", "created_at": "2013-04-20T18:59:30", "screen_name": "MarcheArWx", "coordinates": {"type": "Point", "coordinates": [92.33361111, 34.87777778]}},{"text": "@Rima_Chb \u00e7a peut aller. De tte fa\u00e7on on a pas grand choix sur boulogne :/", "created_at": "2013-04-20T18:59:31", "screen_name": "LpaienFC", "coordinates": {"type": "Point", "coordinates": [1.5697165, 50.6747653]}},{"text": "Frontal lo ahh..gue maen putsal ama bini gue lah RT@agungimposer: Kmana lu tot kga maen kwoon*twol @khutil_62\"", "created_at": "2013-04-20T18:59:31", "screen_name": "khutil_62", "coordinates": {"type": "Point", "coordinates": [106.8261083, -6.347931]}},{"text": "STOP TWEETING EDWARD", "created_at": "2013-04-20T18:59:33", "screen_name": "FlyBoy_Roc", "coordinates": {"type": "Point", "coordinates": [-97.13050396, 32.75257854]}},{"text": "Dientes-trabajo-almuerzo-trabajo-dientes-me voy :) (@ Albrook Mall w/ 7 others) http://t.co/jWm8PlKawf", "created_at": "2013-04-20T18:59:33", "screen_name": "JohnnyXK", "coordinates": {"type": "Point", "coordinates": [-79.55221653, 8.97477982]}},{"text": "#RecordStoreDay 4/20 @BlackStar young DJ, @DevanIbiza @iAmLoadedLux DJ Mike Loe &amp; @allureworld are coming up! @MMedinaSony @LiveLaughRama", "created_at": "2013-04-20T18:59:35", "screen_name": "WritingRebe", "coordinates": {"type": "Point", "coordinates": [-73.94213519, 40.80871306]}},{"text": "Comme depuis le d\u00e9but de l'ann\u00e9e en championnat toute fa\u00e7on #LT", "created_at": "2013-04-20T18:59:37", "screen_name": "CollardDylan1", "coordinates": {"type": "Point", "coordinates": [4.58564278, 48.73330083]}},{"text": "@Tisha_Glam :(", "created_at": "2013-04-20T18:59:43", "screen_name": "Mil_Hood", "coordinates": {"type": "Point", "coordinates": [2.24665555, 48.93837127]}},{"text": "I'm at Mercado Central (Belo Horizonte, MG) w/ 25 others http://t.co/sjGURM6ewe", "created_at": "2013-04-20T18:59:44", "screen_name": "rdigao09", "coordinates": {"type": "Point", "coordinates": [-43.943059, -19.92255]}},{"text": "I can't believe someone would actually think these 3 rugrats are my children lol", "created_at": "2013-04-20T18:59:47", "screen_name": "Claudia_Vel19", "coordinates": {"type": "Point", "coordinates": [-89.7807275, 43.57184406]}},{"text": "@fo__of \n\u0642\u0628\u0627\u0644 \u0641\u0645 \u0644\u0627 \u0639\u0645\u064a\u062a\u064a \n\n\u0643\u062c\u0643 \n\u0647\u0647\u0647\u0647\u0647\u0647\u0647\u0647\u0647\u0647\u0647\u0647\u0647\u0647\u0647\u0647\u0647\u0647\u0647\u0647\u0647\u0647\u0647\u0647\u0647\u0647\u0647 #", "created_at": "2013-04-20T18:59:47", "screen_name": "pidasa300", "coordinates": {"type": "Point", "coordinates": [38.2252261, 24.0111037]}},{"text": "And now, I wait", "created_at": "2013-04-20T18:59:47", "screen_name": "matthew_hoty", "coordinates": {"type": "Point", "coordinates": [-117.8361456, 34.04559886]}},{"text": "So me and Stef got the first two BVB tickets from Ticket Scotland.. :) http://t.co/IdISOaPrjy", "created_at": "2013-04-20T18:59:49", "screen_name": "evy141", "coordinates": {"type": "Point", "coordinates": [-4.33908328, 55.90675262]}},{"text": "Mud Bugs &amp; a Cold Beer @ Sampson Park http://t.co/iOxFXiVIQ2", "created_at": "2013-04-20T18:59:51", "screen_name": "PookieStayFly", "coordinates": {"type": "Point", "coordinates": [-90.03568072, 30.00208448]}},{"text": "@jumpy10villa ya lo sabes.. cada paso que tu des tambi\u00e9n yo lo dar\u00e9 :)", "created_at": "2013-04-20T18:59:51", "screen_name": "VeronicaSan25", "coordinates": {"type": "Point", "coordinates": [-5.6519147, 40.9652999]}},{"text": "@WAZZAP_DC hr ini mau wedding party jam brp?", "created_at": "2013-04-20T18:59:51", "screen_name": "orangmantap", "coordinates": {"type": "Point", "coordinates": [106.81286881, -6.39323432]}},{"text": "Kuzumla gezmece :) (@ Bostanci cordon) http://t.co/HvtBoIJwrQ", "created_at": "2013-04-20T18:59:52", "screen_name": "haticePur", "coordinates": {"type": "Point", "coordinates": [29.10186005, 40.95928373]}},{"text": "From Plaza Tol Penawar-Penggerang = better road surface + it's \u00e0 f\u00e9d\u00e9ral road.\n* confused user *\n\n#jbtu", "created_at": "2013-04-20T18:59:53", "screen_name": "AHH0880_2", "coordinates": {"type": "Point", "coordinates": [104.27937752, 1.38167951]}},{"text": "@jo_avelar muuito homemm vc fico com as fotooos n olha !! Por favor hahahah", "created_at": "2013-04-20T18:59:55", "screen_name": "luizacosso", "coordinates": {"type": "Point", "coordinates": [-43.93133313, -19.95669698]}},{"text": "@carloscorro10. Pero cual es el rollo? Jajjajajaja q haces viendo ese canal chamo?  q vende patria eres tu vale jajjaja viendo @globovision", "created_at": "2013-04-20T18:59:58", "screen_name": "fabian_valbuena", "coordinates": {"type": "Point", "coordinates": [-72.23968, 7.7573]}},{"text": "@fee_98 tamo junto mlkk", "created_at": "2013-04-20T18:59:58", "screen_name": "Fran_Pinho_", "coordinates": {"type": "Point", "coordinates": [-87.93648288, 42.20453044]}},{"text": "\u0425\u044d\u044d\u044d\u0439 \u0445\u044d\u044d\u044d\u0439 \u0431\u044d\u044d\u044d\u0439\u0431\u0438\u0438", "created_at": "2013-04-20T18:59:59", "screen_name": "Janny_Mad", "coordinates": {"type": "Point", "coordinates": [39.68790556, 47.20842084]}},{"text": "\"@RetweetabIe: me: http://t.co/ciCsb6Sqe5\" me tonight", "created_at": "2013-04-20T18:59:59", "screen_name": "_JillyBear_", "coordinates": {"type": "Point", "coordinates": [-71.0749313, 41.8890361]}},{"text": "Man how u delete this shit", "created_at": "2013-04-20T19:00:00", "screen_name": "Nolababy504T", "coordinates": {"type": "Point", "coordinates": [-84.4580544, 39.24151814]}},{"text": "Pasa Dani por meta para su \u00faltima vuelta. Vamos!?", "created_at": "2013-04-20T19:00:00", "screen_name": "Luciadp26", "coordinates": {"type": "Point", "coordinates": [-7.2541127, 37.6183007]}},{"text": "I am just the loudest mind, that is all.", "created_at": "2013-04-20T19:00:01", "screen_name": "audioslider", "coordinates": {"type": "Point", "coordinates": [-86.8801125, 33.4918867]}},{"text": "Muita coisa ainda est\u00e1 por vir, muita coisa ainda vai mudar...", "created_at": "2013-04-20T19:00:01", "screen_name": "rhuanvieiraa", "coordinates": {"type": "Point", "coordinates": [-48.6463896, -27.6334309]}},{"text": "@LilyVeale get a bottle of white lighting and some chips #winning", "created_at": "2013-04-20T19:00:01", "screen_name": "chloedemaret", "coordinates": {"type": "Point", "coordinates": [-2.81371591, 51.58127331]}},{"text": "It is cold in New York now", "created_at": "2013-04-20T19:00:02", "screen_name": "ladyvirginiave", "coordinates": {"type": "Point", "coordinates": [-73.96746199, 40.77330576]}},{"text": "@njallshugz ciao bellissima aKandia c;", "created_at": "2013-04-20T19:00:03", "screen_name": "ciaoswaggie", "coordinates": {"type": "Point", "coordinates": [14.31277992, 40.82928938]}},{"text": "I'm at @MishkaBar (\u0421\u0430\u043d\u043a\u0442-\u041f\u0435\u0442\u0435\u0440\u0431\u0443\u0440\u0433) w/ 9 others [pic]: http://t.co/317xf0EkVg", "created_at": "2013-04-20T19:00:03", "screen_name": "cluevick", "coordinates": {"type": "Point", "coordinates": [30.34407291, 59.93388805]}},{"text": "\u0e21\u0e35\u0e1e\u0e1a\u0e41\u0e25\u0e49\u0e27\u0e21\u0e35\u0e08\u0e32\u0e01 \u0e21\u0e31\u0e19\u0e40\u0e1b\u0e47\u0e19\u0e40\u0e23\u0e37\u0e48\u0e2d\u0e07\u0e18\u0e23\u0e23\u0e21\u0e14\u0e32\u0e23\u0e30\u0e2b\u0e27\u0e48\u0e32\u0e07\u0e40\u0e23\u0e32\ud83d\ude47", "created_at": "2013-04-20T19:00:06", "screen_name": "Apinyafilm", "coordinates": {"type": "Point", "coordinates": [102.83026786, 16.41990591]}},{"text": "@fazirulfareedz gmok.. sembang je lebat... set2 bgai last skali dye x de...", "created_at": "2013-04-20T19:00:07", "screen_name": "angahpoyoz", "coordinates": {"type": "Point", "coordinates": [101.4720875, 3.2784709]}},{"text": "\u042f \u0444\u0430\u043d\u0430\u0442 \u0442\u0430\u043a\u0438\u0445 \u0444\u043e\u0442\u043e http://t.co/AJpMWw0N4i", "created_at": "2013-04-20T19:00:07", "screen_name": "NastyaDoronina1", "coordinates": {"type": "Point", "coordinates": [37.79901707, 48.01862348]}},{"text": "Made some pi\u00f1a coladas on ice! \ud83d\ude0b http://t.co/CBgfePG6fL", "created_at": "2013-04-20T19:00:07", "screen_name": "TatiTheBestestt", "coordinates": {"type": "Point", "coordinates": [-115.08162299, 36.14385654]}},{"text": "http://t.co/6aA5JFca3t", "created_at": "2013-04-20T19:00:07", "screen_name": "SecretAgentBERT", "coordinates": {"type": "Point", "coordinates": [-84.74079568, 39.50363132]}},{"text": "She choosin", "created_at": "2013-04-20T19:00:10", "screen_name": "JustJesYes", "coordinates": {"type": "Point", "coordinates": [-121.48351938, 38.57988071]}},{"text": "@jordyokeefe is gonna be the next @JamesArthur23 \nPlease follow me x x x", "created_at": "2013-04-20T19:00:10", "screen_name": "ChazBrownX", "coordinates": {"type": "Point", "coordinates": [-1.7564398, 51.89200144]}},{"text": "@jackieospubbrew Mandala (C'bus single hop) DIPA on draft now at Dutch's! 130 IBUs! @ Dutch's Bar &amp;\u2026 http://t.co/xFjLArtauD", "created_at": "2013-04-20T19:00:11", "screen_name": "Dutchs", "coordinates": {"type": "Point", "coordinates": [-84.42169548, 39.14146477]}},{"text": "Comprei uma capinha de soco ingles pro neu cel huehue", "created_at": "2013-04-20T19:00:13", "screen_name": "bebolet", "coordinates": {"type": "Point", "coordinates": [-47.05385133, -22.64001933]}},{"text": "yol gozuktu yine... (@ \u00c7a\u011flayanda Trafikte) http://t.co/FnlpgDFCUd", "created_at": "2013-04-20T19:00:13", "screen_name": "gospit", "coordinates": {"type": "Point", "coordinates": [28.97502136, 41.06589508]}},{"text": "No se que har\u00eda neta neta sin @luiscarlosma y @JESSSZABA son mi vida entera! Dar\u00eda mi vida entera x ellos y m\u00e1s! M\u00e1s maaaas! Los amo mucho!", "created_at": "2013-04-20T19:00:14", "screen_name": "mokolorod", "coordinates": {"type": "Point", "coordinates": [-99.12777537, 19.34467065]}},{"text": "#BigProof #Forever ! #RIP ! rapper_eminem @ 69th &amp;Marshall Road http://t.co/RBf6eeeHUW", "created_at": "2013-04-20T19:00:15", "screen_name": "SKITills", "coordinates": {"type": "Point", "coordinates": [-75.25832841, 39.95449575]}},{"text": "I need to stop gettin high", "created_at": "2013-04-20T19:00:15", "screen_name": "NiaeshiaPernell", "coordinates": {"type": "Point", "coordinates": [-86.35477948, 32.47873926]}},{"text": "\u00bfQue le pasa a Marino? :-\\", "created_at": "2013-04-20T19:00:15", "screen_name": "paulinatribal", "coordinates": {"type": "Point", "coordinates": [-70.5756636, -33.5933384]}},{"text": "@ElenaVitulano domani siete tutti invitati a Luras al motoraduno...", "created_at": "2013-04-20T19:00:15", "screen_name": "babbauzzu", "coordinates": {"type": "Point", "coordinates": [9.1766737, 40.9346814]}},{"text": "jahh zeker... neej http://t.co/8bETtqMUTc", "created_at": "2013-04-20T19:00:15", "screen_name": "xxxvaldaresxxx", "coordinates": {"type": "Point", "coordinates": [5.11698718, 52.07510961]}},{"text": "I'm at il porchettone (Palermo) http://t.co/nhrWD6gwtY", "created_at": "2013-04-20T19:00:17", "screen_name": "outermost85", "coordinates": {"type": "Point", "coordinates": [13.34267616, 38.12722397]}},{"text": "sail x awolnation (liquid stranger remix)", "created_at": "2013-04-20T19:00:19", "screen_name": "LeBlancShae", "coordinates": {"type": "Point", "coordinates": [-90.75834045, 29.64823471]}},{"text": "\u00bfQue es una bombilla con patas? un andaluz", "created_at": "2013-04-20T19:00:20", "screen_name": "inmymoon", "coordinates": {"type": "Point", "coordinates": [-4.2238498, 43.3031759]}},{"text": "\ud83d\ude02\ud83d\ude02\ud83d\ude02\ud83d\ude02\ud83d\ude02\ud83d\ude02\ud83d\ude02\ud83d\ude02\ud83d\udc33\ud83d\udc0b http://t.co/bHZqUqB2PJ", "created_at": "2013-04-20T19:00:20", "screen_name": "RonnieWest6", "coordinates": {"type": "Point", "coordinates": [-77.48939244, 39.10166744]}},{"text": "I'm at Charming Charlie - @charm_charlie (Woodbury, MN) http://t.co/l7J4pspPC6", "created_at": "2013-04-20T19:00:22", "screen_name": "LaaauraLynn", "coordinates": {"type": "Point", "coordinates": [-92.92498642, 44.94686783]}},{"text": "@JackTwittor aw think im in love with you!", "created_at": "2013-04-20T19:00:23", "screen_name": "EmilyLongstonex", "coordinates": {"type": "Point", "coordinates": [-1.50303633, 53.3990824]}},{"text": "Nothing pisses me off more than being ignored. You're fucking immature.", "created_at": "2013-04-20T19:00:24", "screen_name": "taylabah", "coordinates": {"type": "Point", "coordinates": [-122.03659751, 47.63417635]}},{"text": "While it's true that today is 4/20 lets also remember to use proper lane usage and give our pets fresh water #todayissaturday", "created_at": "2013-04-20T19:00:26", "screen_name": "A_koloj16", "coordinates": {"type": "Point", "coordinates": [-88.13006431, 41.54466887]}},{"text": "Le voy a las de Brit\u00e1nico :3", "created_at": "2013-04-20T19:00:26", "screen_name": "ArianaWTH", "coordinates": {"type": "Point", "coordinates": [-101.71255903, 21.16646629]}},{"text": "@nzar_nar \u0645\u0645\u0643\u0646 \u0627\u0646\u064a\u0643 \u0641\u064a \u0641\u0645\u0643", "created_at": "2013-04-20T19:00:27", "screen_name": "mssad2012", "coordinates": {"type": "Point", "coordinates": [44.1760725, 17.52260914]}},{"text": "C'est parti au stade de France pour la finale de la coupe de la Ligue entre Saint Etienne et Rennes dans une ambiance MA-GNI-FI-QUE", "created_at": "2013-04-20T19:00:28", "screen_name": "Dogan_Shevo", "coordinates": {"type": "Point", "coordinates": [2.36598529, 48.96899676]}},{"text": "I'm at Hill Of Life Trailhead w/ @kellybobelly001 http://t.co/MRuTK9DjBn", "created_at": "2013-04-20T19:00:29", "screen_name": "OrneryTX", "coordinates": {"type": "Point", "coordinates": [-97.82535182, 30.27537197]}},{"text": "Whoa it feel good outside :)", "created_at": "2013-04-20T19:00:30", "screen_name": "germanyterry", "coordinates": {"type": "Point", "coordinates": [-90.5514425, 41.5324185]}},{"text": "I give her somethin to suck she give me somethin to eatt", "created_at": "2013-04-20T19:00:31", "screen_name": "Rolling_Perfect", "coordinates": {"type": "Point", "coordinates": [-76.88104338, 38.78759191]}},{"text": "@LZeldenrust nee ik bedoel een programma waar je kan kiezen voor welke programmas welke videokaart je wil", "created_at": "2013-04-20T19:00:31", "screen_name": "JesseDusseljee", "coordinates": {"type": "Point", "coordinates": [6.62012845, 53.24373731]}},{"text": "En clase de teatro con Natalia! (@ Guapachoza) http://t.co/77RSH4dhJb", "created_at": "2013-04-20T19:00:34", "screen_name": "Marttin_", "coordinates": {"type": "Point", "coordinates": [-58.407934, -34.601921]}},{"text": "@Mymikaap Mdrr' oke", "created_at": "2013-04-20T19:00:35", "screen_name": "PrincessElykia", "coordinates": {"type": "Point", "coordinates": [4.3382457, 50.83242196]}},{"text": "@OverdoseXO_OVO *you", "created_at": "2013-04-20T19:00:35", "screen_name": "smoovly", "coordinates": {"type": "Point", "coordinates": [-96.32720818, 30.58911204]}},{"text": "@Official2009...nfb", "created_at": "2013-04-20T19:00:36", "screen_name": "Kinky_Curly89", "coordinates": {"type": "Point", "coordinates": [-76.15353253, 36.86127301]}},{"text": "@jorgegil88 conquien aque hora donde?", "created_at": "2013-04-20T19:00:36", "screen_name": "danoskizofrenia", "coordinates": {"type": "Point", "coordinates": [-92.96426816, 17.99030057]}},{"text": "Que ladilla :s", "created_at": "2013-04-20T19:00:36", "screen_name": "Ianka_Tovar", "coordinates": {"type": "Point", "coordinates": [-66.88076141, 10.14867925]}},{"text": "E todo mundo tem que ficar me lembrando que ele t\u00e1 namorando ));", "created_at": "2013-04-20T19:00:36", "screen_name": "jullpellicer", "coordinates": {"type": "Point", "coordinates": [-46.78919053, -23.5100694]}},{"text": "\u0644\u0633\u062a \u0628\u0623\u0641\u0636\u0644 \u0623\u062e\u062a \u0631\u0628\u0645\u0627 \u0644\u0633\u062a \u0628\u0627\u0631\u0648\u0639 \u0635\u062f\u064a\u0642\u0629 \u0648\u0631\u0628\u0645\u0627 \u0644\u0627 \u064a\u062d\u0628\u0646\u064a \u0627\u0644\u062c\u0645\u064a\u0639 \u0648 \u0644\u0643\u0646\u0646\u064a \u0633\u0623\u0642\u0641 \u0628\u062c\u0627\u0646\u0628\u0647\u0645 \u0639\u0646\u062f\u0645\u0627 \u064a\u062d\u062a\u0627\u062c\u0648\u0646 \u0623\u064a \u0645\u0633\u0627\u0639\u062f\u0647 ! \u0647\u0643\u0630\u0627 \u062a\u0631\u0628\u064a\u062a \u0648\u0647\u0643\u0630\u0627 \u0623\u0646\u0627 \u2661", "created_at": "2013-04-20T19:00:40", "screen_name": "Roony_rh", "coordinates": {"type": "Point", "coordinates": [46.77093, 24.78584]}},{"text": "That sad moment when you realize you'll never see someone again. #travelerprobs #europeantravels", "created_at": "2013-04-20T19:00:41", "screen_name": "bethaniemarie1", "coordinates": {"type": "Point", "coordinates": [17.11494826, 48.14680739]}},{"text": "\"@huda_f2: \u0630\u0644\u0643\u064e \u0627\u0644\u0637\u0631\u064a\u0642 \u0644\u0645 \u0623\u062e\u062a\u0627\u0631\u0647 \u064a\u0627 \u0642\u0644\u0628\u064a \u0644\u0643 \u060c \u060c \u0643\u0627\u0646\u062a \u0635\u064f\u062f\u0641\u0629 \u060c\u060c \u0648 \u0647\u064a \u0639\u0646\u062f\u064a \u062e\u064a\u0631\u064c \u0645\u0646 \u0623\u0644\u0641 \u0645\u064a\u0639\u0627\u062f \u060c\u060c! #\u0646\u0628\u0636\"", "created_at": "2013-04-20T19:00:41", "screen_name": "noor21001", "coordinates": {"type": "Point", "coordinates": [43.9288692, 26.3950877]}},{"text": "@jordyokeefe you were amazing tonight on bgt #TeamJordan", "created_at": "2013-04-20T19:00:41", "screen_name": "KidraulsWorld", "coordinates": {"type": "Point", "coordinates": [-1.51696, 52.4317]}},{"text": "@fabounetdu79 @valexhib @csandrinaaaa @hommeqsd j'adorerais aussi", "created_at": "2013-04-20T19:00:41", "screen_name": "mikelawrey73", "coordinates": {"type": "Point", "coordinates": [5.90553618, 45.69401301]}},{"text": "THIS \ud83d\udc49 \u201c@CrookedIntriago: It's really sad. Got way turnt up last night.\nAnd it's on again\u201d", "created_at": "2013-04-20T19:00:44", "screen_name": "DJ_AMG", "coordinates": {"type": "Point", "coordinates": [-82.67664889, 27.75172401]}},{"text": "Esperando k se duche @Trianatkmjose para poder ducharme :-)", "created_at": "2013-04-20T19:00:45", "screen_name": "Triterbb", "coordinates": {"type": "Point", "coordinates": [-6.04396603, 37.34655595]}},{"text": "Xupa rekalke", "created_at": "2013-04-20T19:00:46", "screen_name": "feranitele", "coordinates": {"type": "Point", "coordinates": [-51.3945005, -22.1291082]}},{"text": "@jordymo3 that guy was actual perfection, Irish and sung one direction!:O", "created_at": "2013-04-20T19:00:47", "screen_name": "BethanyFoster2", "coordinates": {"type": "Point", "coordinates": [-0.78043433, 53.92716009]}},{"text": "@cekc_mypucm \u0441\u043a\u043e\u0440\u0435\u0435 \u0432\u0435\u0447\u0435\u0440!))", "created_at": "2013-04-20T19:00:47", "screen_name": "volohx", "coordinates": {"type": "Point", "coordinates": [20.16090017, 54.93028644]}},{"text": "Otra genialidad de Benzema que nadie ve.", "created_at": "2013-04-20T19:00:51", "screen_name": "Rubenzema7", "coordinates": {"type": "Point", "coordinates": [-5.5724511, 42.584423]}},{"text": "D'guman ji3\"@Miramimuu: kalo nanti sedihki nda bakalan datangka untuk kasi senangki. Tapiii datangka untuk tmaniki sedih\"an #ttsahh\"", "created_at": "2013-04-20T19:00:52", "screen_name": "reginaerlina", "coordinates": {"type": "Point", "coordinates": [119.470875, -5.1759]}},{"text": "His smile.", "created_at": "2013-04-20T19:00:53", "screen_name": "Pamela_said", "coordinates": {"type": "Point", "coordinates": [35.6137842, 33.9713041]}},{"text": "Two weeks from today and I'll get to have some good old Oklahoma home cookin'. \ud83d\ude0b", "created_at": "2013-04-20T19:00:53", "screen_name": "m_miles2", "coordinates": {"type": "Point", "coordinates": [-111.820805, 41.75797574]}},{"text": "Idk but I'm not even that excited about 4/20 its just another smoking day", "created_at": "2013-04-20T19:00:53", "screen_name": "FatPutasEatCake", "coordinates": {"type": "Point", "coordinates": [-98.61809474, 29.34053033]}},{"text": "@IvannaSeduchu I'd love to go too", "created_at": "2013-04-20T19:00:54", "screen_name": "konastar", "coordinates": {"type": "Point", "coordinates": [-155.9514094, 19.6051785]}},{"text": "Que rico es pasar siempre por el Crucero.....vivir\u00eda feliz ah\u00ed...Hahaha! =P", "created_at": "2013-04-20T19:00:54", "screen_name": "FlaviaPao", "coordinates": {"type": "Point", "coordinates": [-86.3084455, 11.9656609]}},{"text": "Cok dadl\u0131 bi skooor http://t.co/yw01pxMu0L", "created_at": "2013-04-20T19:00:55", "screen_name": "cagansebnem", "coordinates": {"type": "Point", "coordinates": [38.3374336, 40.9117497]}},{"text": "\u0e19\u0e2d\u0e19\u0e44\u0e21\u0e48\u0e2b\u0e25\u0e31\u0e1a\u0e1a\u0e1a\u0e1a\u0e1a\u0e1a\u0e1a (@ My Home ;)))) http://t.co/B13VUaNoJn", "created_at": "2013-04-20T19:00:55", "screen_name": "jingiizz", "coordinates": {"type": "Point", "coordinates": [100.27683882, 13.68249714]}},{"text": "@AllenLopez619 that was me ! Lol", "created_at": "2013-04-20T19:00:56", "screen_name": "X_Heinz_X36", "coordinates": {"type": "Point", "coordinates": [-74.03070246, 40.78033723]}},{"text": "li 'fags' \u201c@StockTwits: Flags flying at half mast in Gold and Silver http://t.co/pPEJo8HnjX via @peterlbrandt $GC_F $SI_F\u201d", "created_at": "2013-04-20T19:00:56", "screen_name": "arrowp", "coordinates": {"type": "Point", "coordinates": [-46.65386257, -23.56499858]}},{"text": "\u00c5rets f\u00f8rste grillaften \u2605 @ Koparstad http://t.co/FBDRFMrK3I", "created_at": "2013-04-20T19:00:56", "screen_name": "IraSarucco", "coordinates": {"type": "Point", "coordinates": [5.5813525, 62.3393372]}},{"text": "@Katie_Louise_90 beaut wasn't he..", "created_at": "2013-04-20T19:00:56", "screen_name": "melh1991", "coordinates": {"type": "Point", "coordinates": [-1.63547561, 52.81817396]}},{"text": "@KelLouiseSleep Aw thank you you too;--)xxxx", "created_at": "2013-04-20T19:00:57", "screen_name": "miahaward", "coordinates": {"type": "Point", "coordinates": [-1.2986925, 50.7552509]}},{"text": "@LucasCCraft send me it!", "created_at": "2013-04-20T19:00:59", "screen_name": "HerVagIsFISHy", "coordinates": {"type": "Point", "coordinates": [-96.6793216, 40.8448768]}},{"text": "esse \u00e9 o meu pre\u00e7o p deixar vc irrrrr", "created_at": "2013-04-20T19:01:00", "screen_name": "biafrancielle", "coordinates": {"type": "Point", "coordinates": [-46.4700302, -23.4196115]}},{"text": "@4everBrandy made a muthafuckin statement wit that #FullMoon album.. smh.. it was Now or Never wit her on there honey!!!!!! #VocalBible", "created_at": "2013-04-20T19:01:00", "screen_name": "Dream_in_coloR_", "coordinates": {"type": "Point", "coordinates": [-87.62609673, 41.7727636]}},{"text": "j\u00e1 disse que minhas pernas est\u00e3o escangalhadas hoje?? porque est\u00e3o kkkkkkkkkkkkkkkkkkkk'", "created_at": "2013-04-20T19:01:01", "screen_name": "_JessieKaren", "coordinates": {"type": "Point", "coordinates": [-47.3518084, -15.5420281]}},{"text": "- iTs 4/20  .... Niggas Smoking Alreadyy ! iF I Don't Smoke On A Regular Day , Then iM Not Smoking Today ! foh", "created_at": "2013-04-20T19:01:02", "screen_name": "Naddaa1Griffinn", "coordinates": {"type": "Point", "coordinates": [-82.44689362, 35.05380856]}},{"text": "@Gumdropps_ I do love you baby gumdrop\ud83d\ude18\u2764", "created_at": "2013-04-20T19:01:03", "screen_name": "glongg93", "coordinates": {"type": "Point", "coordinates": [-74.83525391, 38.97824284]}},{"text": "SOy thu ReAl Papix nooo bultOooo quE le gusta sus reaLes neGrones :3", "created_at": "2013-04-20T19:01:04", "screen_name": "GeorgeCalcano01", "coordinates": {"type": "Point", "coordinates": [-69.91344, 18.45831]}},{"text": "@crissycraita you baby are all mine", "created_at": "2013-04-20T19:01:05", "screen_name": "jakobwilliams09", "coordinates": {"type": "Point", "coordinates": [-3.60009506, 51.4971514]}},{"text": "\"@BrriPadilla: Las altas somos sensuales.\" Perfecto Briyith Padilla :D /:)", "created_at": "2013-04-20T19:01:06", "screen_name": "MaleOrtiz15", "coordinates": {"type": "Point", "coordinates": [-72.90509, 11.54745]}},{"text": "We are at the first ice cream party of the season! @daina_a aboyce18 @Voyager_V @sweettarteblog @ Kate's http://t.co/1YdHlb90t8", "created_at": "2013-04-20T19:01:06", "screen_name": "Usha_Joy", "coordinates": {"type": "Point", "coordinates": [-73.97633333, 40.6805]}},{"text": "@Aristiguetaa no doy maooo juuum :(", "created_at": "2013-04-20T19:01:07", "screen_name": "JAMValderrama", "coordinates": {"type": "Point", "coordinates": [-66.8484638, 10.6121573]}},{"text": "http://t.co/kpptXeI2vb http://t.co/kpptXeI2vb http://t.co/kpptXeI2vb (@ Panino Pizza USAK) http://t.co/119GRinCV0", "created_at": "2013-04-20T19:01:13", "screen_name": "SBYCSB", "coordinates": {"type": "Point", "coordinates": [29.40707446, 38.67401828]}},{"text": "My baby boy and I at his karate tournament! He did so well! Proud mom! Love him so much! All the\u2026 http://t.co/qCN6nA1bQj", "created_at": "2013-04-20T19:01:13", "screen_name": "LindseyM619", "coordinates": {"type": "Point", "coordinates": [-94.71907073, 33.01398472]}},{"text": "Mommy a solider , daddy he dead", "created_at": "2013-04-20T19:01:16", "screen_name": "fameuniversity", "coordinates": {"type": "Point", "coordinates": [-71.43252469, 41.84298825]}},{"text": "Buena tardee en la Salobreja viendo al @jaenfs Aseguradoss esos playss offs! #jaenquiereserdeprimera", "created_at": "2013-04-20T19:01:16", "screen_name": "facunlomasboliv", "coordinates": {"type": "Point", "coordinates": [-3.6543811, 37.530311]}},{"text": "@Sschwarzweiss abii taymlayn da alt altayiz bu kadae tesaduf olur. Kalpler temiz aq :)))", "created_at": "2013-04-20T19:01:18", "screen_name": "KemalBirgez", "coordinates": {"type": "Point", "coordinates": [13.03159045, 47.81274781]}},{"text": "@camps_callum dm'd you", "created_at": "2013-04-20T19:01:19", "screen_name": "Chris_Rogerss", "coordinates": {"type": "Point", "coordinates": [-2.03987455, 53.48561245]}},{"text": "\u201c@AllHail_Deejay: @LethalKiisses_ Na Lol\u201d lol ohh ok", "created_at": "2013-04-20T19:01:21", "screen_name": "LethalKiisses_", "coordinates": {"type": "Point", "coordinates": [-73.59209572, 40.70779213]}},{"text": "Curling my hair, just to soak it in water again, just to gain some volume. These are the things I have to deal with in my life.", "created_at": "2013-04-20T19:01:21", "screen_name": "NinaBayemani", "coordinates": {"type": "Point", "coordinates": [-0.2052998, 51.61212701]}},{"text": "@TassiaOliveiira discuti dnv com o meu irm\u00e3o ):", "created_at": "2013-04-20T19:01:22", "screen_name": "tdkajonas", "coordinates": {"type": "Point", "coordinates": [-48.47271123, -1.45285012]}},{"text": "Da fuck this look like", "created_at": "2013-04-20T19:01:22", "screen_name": "K_garrabrant", "coordinates": {"type": "Point", "coordinates": [-74.93829419, 38.97470856]}},{"text": "@Sowaskk ZAAAA. 81 :):)::):)", "created_at": "2013-04-20T19:01:22", "screen_name": "kedigilleer", "coordinates": {"type": "Point", "coordinates": [29.2616111, 40.87372143]}},{"text": "Melhor restaurante de Limeira: Taru", "created_at": "2013-04-20T19:01:24", "screen_name": "cacarvalho", "coordinates": {"type": "Point", "coordinates": [-47.44016716, -22.57057674]}},{"text": "@HaifaWehbe. U r such a great actor ! I thohght i was watching a novela!!!  Lol love it! #ezzayansakvideo", "created_at": "2013-04-20T19:57:01", "screen_name": "ajlouniboy", "coordinates": {"type": "Point", "coordinates": [-73.902654, 40.918593]}},{"text": "@_Samtaigne_ ulan \u00f6l\u00fc s\u0131cakl\u0131\u011f\u0131nda olsa yeticek sana :-D", "created_at": "2013-04-20T19:57:02", "screen_name": "wusoguzhan", "coordinates": {"type": "Point", "coordinates": [28.9566217, 41.0048411]}},{"text": "#thevoiceuk @TheScript_Danny TEAM DANNYYYY :D", "created_at": "2013-04-20T19:57:02", "screen_name": "AnikaDina", "coordinates": {"type": "Point", "coordinates": [0.01755, 51.54868]}},{"text": "I'm at Gazi Kad\u0131nlar Soka\u011f\u0131 (Konak, \u0130zmir) w/ 85 others http://t.co/1VYEWUrkpZ", "created_at": "2013-04-20T19:57:03", "screen_name": "e_barisyilmaz", "coordinates": {"type": "Point", "coordinates": [27.1425283, 38.43729562]}},{"text": "@CaraMiaAmica love you xx", "created_at": "2013-04-20T19:57:04", "screen_name": "mynameislauren_", "coordinates": {"type": "Point", "coordinates": [1.1324895, 51.7939895]}},{"text": "To ra vin' kom si y pa t\u00e9 gen anyin ben no a pa kan sa bet'a ra pass\u00e9", "created_at": "2013-04-20T19:57:05", "screen_name": "MinajFatAss", "coordinates": {"type": "Point", "coordinates": [2.4520595, 48.8595363]}},{"text": "Wie dr jkt, km?? Lam kenal :) RT @Nuryyrun: done :) siapa ya??\"@WidhieAR: @Nuryyrun follback :)", "created_at": "2013-04-20T19:57:06", "screen_name": "WidhieAR", "coordinates": {"type": "Point", "coordinates": [106.79375333, -6.27890591]}},{"text": "If its not Miami Knicks are taking it this year", "created_at": "2013-04-20T19:57:08", "screen_name": "2nd_to_n0ne", "coordinates": {"type": "Point", "coordinates": [-71.41825156, 41.85718986]}},{"text": "http://t.co/8PIHQgFfmS", "created_at": "2013-04-20T19:57:08", "screen_name": "han44560", "coordinates": {"type": "Point", "coordinates": [44.1628307, 17.4616711]}},{"text": "\u201c@PatrickPics: http://t.co/yyh4VHO9Ew\u201d", "created_at": "2013-04-20T19:57:09", "screen_name": "DerekBernard", "coordinates": {"type": "Point", "coordinates": [-122.32450544, 47.62289154]}},{"text": "J'ai plein d'inspirations l\u00e0 :D", "created_at": "2013-04-20T19:57:10", "screen_name": "Maellou_", "coordinates": {"type": "Point", "coordinates": [15.0988153, 37.5341531]}},{"text": "Pisco sour!", "created_at": "2013-04-20T19:57:10", "screen_name": "germanlesme", "coordinates": {"type": "Point", "coordinates": [-77.03347174, -12.04757705]}},{"text": "Mi lover. @ErinJ0Anderson http://t.co/uKdXmxKBWM", "created_at": "2013-04-20T19:57:10", "screen_name": "sarah_held", "coordinates": {"type": "Point", "coordinates": [-88.0938273, 43.1729053]}},{"text": "@TheTweeter_x pls take this off hahahahahahahahaha", "created_at": "2013-04-20T19:57:11", "screen_name": "_jadetipping", "coordinates": {"type": "Point", "coordinates": [-1.47252731, 52.40792053]}},{"text": "@Chlo_Radders lol ima come in say hi av a drink the see where the mandem r xx", "created_at": "2013-04-20T19:57:12", "screen_name": "LamarLemonius", "coordinates": {"type": "Point", "coordinates": [0.08208113, 51.57984336]}},{"text": "@mazajy69 \u0623\u0645\u0645\u0645 \u060c\u0645\u064a\u0646 \u0645\u0639\u0627\u064a", "created_at": "2013-04-20T19:57:12", "screen_name": "SaraAlabdulah22", "coordinates": {"type": "Point", "coordinates": [40.21817, 29.96195]}},{"text": "@junchew playing his harmonica @ wild dog http://t.co/Gy7KXldABC", "created_at": "2013-04-20T19:57:13", "screen_name": "ezzatski", "coordinates": {"type": "Point", "coordinates": [101.743501, 3.216794]}},{"text": "mana anak hadee ni  , awal gila tidur", "created_at": "2013-04-20T19:57:14", "screen_name": "yanachiko", "coordinates": {"type": "Point", "coordinates": [101.5832908, 3.3029621]}},{"text": "@sezl not at all ! Favourite part now ! Hearts on fire !!", "created_at": "2013-04-20T19:57:14", "screen_name": "kathelcymru", "coordinates": {"type": "Point", "coordinates": [-2.66556938, 54.8176101]}},{"text": "Plz donate  #poor #lone #money #help @ downtown http://t.co/gPZRgOHJeP", "created_at": "2013-04-20T19:57:14", "screen_name": "Nick_barrix", "coordinates": {"type": "Point", "coordinates": [-85.68485465, 42.95616969]}},{"text": "Hoy vamos por una victoria mas!!! VAMOS LOS. DEL VERDE", "created_at": "2013-04-20T19:57:17", "screen_name": "KevinMunozA02", "coordinates": {"type": "Point", "coordinates": [-75.68112538, 4.82559846]}},{"text": "I hope you're happy", "created_at": "2013-04-20T19:57:18", "screen_name": "halie_thomas", "coordinates": {"type": "Point", "coordinates": [-78.77695602, 42.88574162]}},{"text": "Pre-ordered #Battlefield4 \ud83d\udc4d\ud83d\udd2b", "created_at": "2013-04-20T19:57:18", "screen_name": "brandon_rosario", "coordinates": {"type": "Point", "coordinates": [-76.97900226, 39.82327152]}},{"text": "\u0627\u0646\u0627 \u0648 @shahadshihab  \u0645\u0634\u0631\u0648\u0639 \u062a\u0633\u0645\u0645 \u0627\u0644\u064a\u0648\u0645.. \u0627\u0630\u0627 \u0645\u0627 \u0644\u0642\u064a\u062a\u0648\u0646\u064a \u062d\u0627\u0637\u0629 \u0635\u0648\u0631\u0629 \u0628\u0627\u062c\u0631 \u0633\u0625\u0644\u0648\u0627 \u0639\u0646\u064a \u062a\u0641\u0642\u062f\u0648\u0646\u064a \ud83d\ude01\ud83d\ude33\ud83d\ude1b #kuwait\u2026 http://t.co/9ZUiWSrvDA", "created_at": "2013-04-20T19:57:19", "screen_name": "Marawei", "coordinates": {"type": "Point", "coordinates": [48.00711717, 29.37038606]}},{"text": "@ladygaga follow me bitch  #MonsterFollowParty lol", "created_at": "2013-04-20T19:57:25", "screen_name": "pamellapotrich", "coordinates": {"type": "Point", "coordinates": [-55.72034674, -12.55207573]}},{"text": "Rahlololo j'ai mal au ventre tt sa jvous raconte pas", "created_at": "2013-04-20T19:57:28", "screen_name": "MiniMwaka", "coordinates": {"type": "Point", "coordinates": [2.611133, 48.8008746]}},{"text": "So annoyed with you.", "created_at": "2013-04-20T19:57:29", "screen_name": "eddandrew", "coordinates": {"type": "Point", "coordinates": [-71.39841881, 42.3055542]}},{"text": "2 in the feet for Maroney. Shake it off. #cashionbaseball", "created_at": "2013-04-20T19:57:32", "screen_name": "OKBIRD5690", "coordinates": {"type": "Point", "coordinates": [-96.4820356, 36.02878378]}},{"text": "I didn't even know the rugrats were still on tv \ud83d\ude33", "created_at": "2013-04-20T19:57:32", "screen_name": "Sydnee_Wargo", "coordinates": {"type": "Point", "coordinates": [-83.02819798, 42.71960048]}},{"text": "Que grande! @estherbeyo http://t.co/ETlN1HTJLr", "created_at": "2013-04-20T19:57:33", "screen_name": "SCaleyin10", "coordinates": {"type": "Point", "coordinates": [-5.76307, 43.16509]}},{"text": "Nuevo trabajoooo? (@ Cafe El Parque Pedregal) http://t.co/g5tzk0e3QY", "created_at": "2013-04-20T19:57:33", "screen_name": "Romiina_mp", "coordinates": {"type": "Point", "coordinates": [-99.1971928, 19.28605998]}},{"text": "I'm at Muriqui (Mangaratiba, RJ) http://t.co/2fsFtcjOaE", "created_at": "2013-04-20T19:57:35", "screen_name": "angeloalexandre", "coordinates": {"type": "Point", "coordinates": [-43.94231669, -22.92321823]}},{"text": "Kinda wish I went to church last night \ud83d\ude14\ud83d\ude14", "created_at": "2013-04-20T19:57:37", "screen_name": "PrettyDreadzSMR", "coordinates": {"type": "Point", "coordinates": [-64.74228668, 17.76513672]}},{"text": "Love Courtney Lee and Avery Bradley hounding opposing backcourts", "created_at": "2013-04-20T19:57:37", "screen_name": "michaeldflessa", "coordinates": {"type": "Point", "coordinates": [-78.85610364, 42.97058232]}},{"text": "@_JajArmando_ yo.no estoy idiotoooo!!", "created_at": "2013-04-20T19:57:37", "screen_name": "2113Fran", "coordinates": {"type": "Point", "coordinates": [-4.1461253, 37.1672286]}},{"text": "on peu dire qu'on a faite le tour du monde @arianeberube21 @ArianeFrancoeur @camille_doiron @sophrichard @maudechouinard1 \ud83c\uddef\ud83c\uddf5\ud83c\uddee\ud83c\uddf9\ud83c\uddfa\ud83c\uddf8\ud83c\uddeb\ud83c\uddf7\ud83c\uddec\ud83c\udde7", "created_at": "2013-04-20T19:57:38", "screen_name": "ellena_latour", "coordinates": {"type": "Point", "coordinates": [-81.54704507, 28.36925661]}},{"text": "I hate it wen little power change pple", "created_at": "2013-04-20T19:57:40", "screen_name": "mexzi007", "coordinates": {"type": "Point", "coordinates": [7.0024, 5.37617]}},{"text": "Can I quit in the middle of a shift", "created_at": "2013-04-20T19:57:41", "screen_name": "Dan_Ehle", "coordinates": {"type": "Point", "coordinates": [-93.0305875, 45.0001479]}},{"text": "Moving to ireland when I'm older, idc!!!!", "created_at": "2013-04-20T19:57:44", "screen_name": "Bob_e_ann_xx", "coordinates": {"type": "Point", "coordinates": [0.17373, 51.56191]}},{"text": "\"Take my slippers off and fuck you with my vans on\" \ud83d\udc5f\ud83d\ude0e\ud83d\udc4d", "created_at": "2013-04-20T19:57:47", "screen_name": "LiveLifeMark", "coordinates": {"type": "Point", "coordinates": [-74.43745365, 41.42423367]}},{"text": "\u201c@julievanniekerk: I wanna rock your body\u201d", "created_at": "2013-04-20T19:57:47", "screen_name": "xkusjekelly_", "coordinates": {"type": "Point", "coordinates": [4.25879687, 52.07542348]}},{"text": "Gate 04 JetBlue airways Go To ???? \u2708\ud83c\udfca\u2600  #Gate #04 #JetBlue #airways #Go #To @ Gate 4 http://t.co/GwVaVI1VqP", "created_at": "2013-04-20T19:57:47", "screen_name": "CalleCalleNY", "coordinates": {"type": "Point", "coordinates": [-73.77563953, 40.64515448]}},{"text": "Dropping off Cash. (@ Williamsburg Pet Hotel) http://t.co/rGeARjXdGk", "created_at": "2013-04-20T19:57:50", "screen_name": "Matropolis1", "coordinates": {"type": "Point", "coordinates": [-90.49151216, 38.59511127]}},{"text": "Coca-cola Bodrum reklam\u0131 ne g\u00fczel olmu\u015f!", "created_at": "2013-04-20T19:57:51", "screen_name": "fatmaozceri", "coordinates": {"type": "Point", "coordinates": [28.87841499, 40.98635266]}},{"text": "@AlvinGuaba @iratxe_27 Oooh te quiero muuucho! Gracias a ti!!", "created_at": "2013-04-20T19:57:51", "screen_name": "Luciahcf", "coordinates": {"type": "Point", "coordinates": [-0.3943584, 38.423626]}},{"text": "@irvbox thank you. How about back pains?", "created_at": "2013-04-20T19:57:52", "screen_name": "SMahfudh_", "coordinates": {"type": "Point", "coordinates": [-0.34285211, 51.44519337]}},{"text": "If your a trill nigaa get your motherfuckin hands uppp", "created_at": "2013-04-20T19:57:53", "screen_name": "MehdyEus", "coordinates": {"type": "Point", "coordinates": [-61.6192492, 16.2322853]}},{"text": "@supjoc true love right there", "created_at": "2013-04-20T19:57:53", "screen_name": "ktred1996", "coordinates": {"type": "Point", "coordinates": [-115.25149441, 36.05289537]}},{"text": "Que te quiero cacho de bonito!!!!", "created_at": "2013-04-20T19:57:58", "screen_name": "isa_yeles23", "coordinates": {"type": "Point", "coordinates": [-3.80829545, 40.10550584]}},{"text": "M\u00eame moi j'sais pas chant\u00e9 aussi aigu\u00eb mdr", "created_at": "2013-04-20T19:58:00", "screen_name": "Nekfeutte", "coordinates": {"type": "Point", "coordinates": [3.1107, 50.64157]}},{"text": "@shine_s_5 @alaazahrany \u0622\u0646\u0634\u0622\u0621\u0622\u0644\u0644\u0647 :$", "created_at": "2013-04-20T19:58:01", "screen_name": "PnPn44", "coordinates": {"type": "Point", "coordinates": [50.0636666, 26.7061973]}},{"text": "@AryanRozbayani you started it", "created_at": "2013-04-20T19:58:02", "screen_name": "Lorcsika", "coordinates": {"type": "Point", "coordinates": [44.16152196, 36.31507006]}},{"text": "* \u0623\u0633\u0639\u062f\u0648 \u0645\u0646 \u062a\u062d\u0628\u0648\u0646 \u0642\u0628\u0644 \u0622\u0646 \u062a\u0628\u0643\u0648\u0627 \u0639\u0644\u0649 \u0648\u062f\u0627\u0627\u0639\u0647\u00b0 http://t.co/tZS1Pts28a", "created_at": "2013-04-20T19:58:02", "screen_name": "AngilSoft", "coordinates": {"type": "Point", "coordinates": [46.6495865, 24.6873713]}},{"text": "Let's see a walk off", "created_at": "2013-04-20T19:58:03", "screen_name": "kneal10", "coordinates": {"type": "Point", "coordinates": [-84.25637477, 39.65721893]}},{"text": "I'm at Cin\u00e9polis - @cinepolis for Oblivion (Naucalpan, MEX) w/ 2 others http://t.co/4y7BH66dwl", "created_at": "2013-04-20T19:58:06", "screen_name": "bRnDaxRamOnE", "coordinates": {"type": "Point", "coordinates": [-99.23336506, 19.50965844]}},{"text": "Just witnessed a five year old girl walking with a baby stroller and talking on a cell phone. #cutest #thing #ever #society #wtf", "created_at": "2013-04-20T19:58:07", "screen_name": "jilly_furnish", "coordinates": {"type": "Point", "coordinates": [-84.47818341, 39.11022746]}},{"text": "Snoop Lion's \"No Guns Allowed\"", "created_at": "2013-04-20T19:58:09", "screen_name": "SammyEscabar", "coordinates": {"type": "Point", "coordinates": [-84.56598996, 39.10858481]}},{"text": "@GygyWayne Tema t boule zobaaa ahahahahh on la cst qui ?", "created_at": "2013-04-20T19:58:09", "screen_name": "DeboAlaFraise", "coordinates": {"type": "Point", "coordinates": [2.3915793, 48.7893264]}},{"text": "@mishelly_conway @touchdolan Pulitzer and hurst they think we're nothing! Are we nothing!?", "created_at": "2013-04-20T19:58:10", "screen_name": "tommypoopypants", "coordinates": {"type": "Point", "coordinates": [-75.62538743, 40.02311436]}},{"text": "minha caloi prontinha pra amanha *-* , espero ir bem amanha, camp paulista 2011 e 2013, imagina ? *-* hahahahahaha", "created_at": "2013-04-20T19:58:12", "screen_name": "itsmeLucca", "coordinates": {"type": "Point", "coordinates": [-46.6899723, -23.6159209]}},{"text": "@flavia_pennetta bella la vita vero penna? Massaggino tutte le sere \ud83d\ude04 #pampering http://t.co/CX2SNkqCpN", "created_at": "2013-04-20T19:58:13", "screen_name": "Galimba1976", "coordinates": {"type": "Point", "coordinates": [13.37021572, 38.14578892]}},{"text": "@Giovani_ThaDon Haha, just sayin.", "created_at": "2013-04-20T19:58:14", "screen_name": "danirenae16", "coordinates": {"type": "Point", "coordinates": [-96.61759436, 39.19219136]}},{"text": "When @BrittsTheillest  calls and has deep conversations with me, and helps me get through things like this\u2661 Thank you I love you girl:*", "created_at": "2013-04-20T19:58:14", "screen_name": "Lovely_Alee11", "coordinates": {"type": "Point", "coordinates": [-106.5932663, 31.9999159]}},{"text": "@ElliiPrado yo mejor :) no vaya a chocar el panda", "created_at": "2013-04-20T19:58:15", "screen_name": "ms_belqg", "coordinates": {"type": "Point", "coordinates": [-89.45656079, 20.90571197]}},{"text": "@Dieego_ahumada Perro, Franco esta mareado hace 4 partidos poh.......", "created_at": "2013-04-20T19:58:15", "screen_name": "luislavinni", "coordinates": {"type": "Point", "coordinates": [-71.52735603, -32.78584783]}},{"text": "\u0645\u0627 \u064a\u062b\u064a\u0631\u064f \u0625\u0639\u062c\u0627\u0628\u064a \u0648\u064a\u0632\u064a\u062f\u064f \u0645\u0646 \u0648\u0644\u0639\u064a \u0628\u0639\u064a\u0646\u064a\u0643\u0650\u060c \u0647\u0648 \u0623\u0646\u0646\u064a \u0643\u0644\u0651\u0645\u0627 \u062a\u0647\u062a\u064f \u0641\u064a\u0647\u0645\u0627 \u0648\u062c\u062f\u062a\u064f \u0646\u0641\u0633\u064a \u060c\u060c", "created_at": "2013-04-20T19:58:17", "screen_name": "3ZoOz10550", "coordinates": {"type": "Point", "coordinates": [40.5891778, 21.19011]}},{"text": "afeitarme o no van ya 3 semanas q perreria voy ahorrar cuchillas :p", "created_at": "2013-04-20T19:58:17", "screen_name": "El__Pardo", "coordinates": {"type": "Point", "coordinates": [-1.8642392, 39.0040304]}},{"text": "@Myboyzaynie devam b\u00f6yle :ddd", "created_at": "2013-04-20T19:58:18", "screen_name": "momsenfeels", "coordinates": {"type": "Point", "coordinates": [28.7998258, 41.1192787]}},{"text": "Got my knicks cap on ! http://t.co/x6L4dDcuez", "created_at": "2013-04-20T19:58:18", "screen_name": "Elliot_SA21Guap", "coordinates": {"type": "Point", "coordinates": [-87.93967347, 43.01891774]}},{"text": "@Fredro_812 some might. But there are girls who really like basketball...", "created_at": "2013-04-20T19:58:20", "screen_name": "tionna_mae", "coordinates": {"type": "Point", "coordinates": [-87.13723564, 37.76809406]}},{"text": "When it rains it pours", "created_at": "2013-04-20T19:58:22", "screen_name": "AaronRhea", "coordinates": {"type": "Point", "coordinates": [-83.99208952, 36.05202567]}},{"text": "\u201c@sebaxd96: @Comingshoon no fue nada... Fueron como 3 o 4seg y movimiento muy leve jajaja\u201d// si se , pero igual po...", "created_at": "2013-04-20T19:58:23", "screen_name": "Comingshoon", "coordinates": {"type": "Point", "coordinates": [-72.09714532, -36.59544238]}},{"text": "BUENA TARDE DE CHICHAS EN RINCON DE MELLADO ...", "created_at": "2013-04-20T19:58:24", "screen_name": "guerrerofoto", "coordinates": {"type": "Point", "coordinates": [-71.40239395, -35.00746459]}},{"text": "@MaxOuBien il est pose sur mes jambes", "created_at": "2013-04-20T19:58:25", "screen_name": "FionaAlicia_R", "coordinates": {"type": "Point", "coordinates": [6.18511658, 46.20822635]}},{"text": "\u30c6\u30ad\u30fc\u30e910000\u4e07\u5206ww http://t.co/t4nAlXGEpY", "created_at": "2013-04-20T19:58:28", "screen_name": "takuuun1110", "coordinates": {"type": "Point", "coordinates": [139.44521479, 35.54661441]}},{"text": "Mark Ingram miss bama so much", "created_at": "2013-04-20T19:58:31", "screen_name": "flipwilson12", "coordinates": {"type": "Point", "coordinates": [-87.832723, 32.5115116]}},{"text": "That's why he my favorite player besides Durant", "created_at": "2013-04-20T19:58:33", "screen_name": "uncdre", "coordinates": {"type": "Point", "coordinates": [-84.3005103, 33.387765]}},{"text": "I'm at http://t.co/EUDKbjNHpZ [pic]: http://t.co/ThRuARLq2l", "created_at": "2013-04-20T19:58:38", "screen_name": "hacimmmmm", "coordinates": {"type": "Point", "coordinates": [32.68553793, 39.88911518]}},{"text": "Can I just move to New Orleans now? \ud83c\udf03\ud83d\ude3b #InLove", "created_at": "2013-04-20T19:58:39", "screen_name": "_PrincessPaigey", "coordinates": {"type": "Point", "coordinates": [-90.06412863, 29.96035618]}},{"text": "#YoPorCulturaProfetica &lt;3 65", "created_at": "2013-04-20T19:58:40", "screen_name": "michu_duque", "coordinates": {"type": "Point", "coordinates": [-70.6232957, -33.4699364]}},{"text": "Ptn mon p\u00e8re a manger des \u0153ufs dur depuis il ns polluent l'aire", "created_at": "2013-04-20T19:58:41", "screen_name": "OrsennaB", "coordinates": {"type": "Point", "coordinates": [2.3397251, 48.89695463]}},{"text": "@DaygonTube P-Pero debes compartirla Day-san :( te gustara sentir mis colmillos ya veraz xD", "created_at": "2013-04-20T19:58:41", "screen_name": "MishimaUmiko", "coordinates": {"type": "Point", "coordinates": [-67.9606, 10.46883]}},{"text": "Iets van beyonce kijken op ned.3", "created_at": "2013-04-20T19:58:42", "screen_name": "iilovesbieber", "coordinates": {"type": "Point", "coordinates": [4.38789342, 52.04353394]}},{"text": "@ddlovato I'm so proud of you ... Just saying \u2661", "created_at": "2013-04-20T19:58:42", "screen_name": "trustinnme", "coordinates": {"type": "Point", "coordinates": [-74.0404, 4.76008]}},{"text": "Ya ya ya ya", "created_at": "2013-04-20T19:58:43", "screen_name": "anak_kuno", "coordinates": {"type": "Point", "coordinates": [106.9497452, -6.23201]}},{"text": "@jdcampbell33 haha that's right", "created_at": "2013-04-20T19:58:43", "screen_name": "Dan44Jw52", "coordinates": {"type": "Point", "coordinates": [-81.6487022, 30.0004215]}},{"text": "Ok so my thoughts on this holiday, if you dont smoke shut the fuck up about it, If you do and \"it's just another day\" be happy &amp; #Celebrate\u270c", "created_at": "2013-04-20T19:58:46", "screen_name": "KaylahTurpin", "coordinates": {"type": "Point", "coordinates": [-71.32009435, 42.65209602]}},{"text": "I mean I want them to win. #thevoice", "created_at": "2013-04-20T19:58:47", "screen_name": "Jja1987", "coordinates": {"type": "Point", "coordinates": [-2.79814772, 54.05004493]}},{"text": "Out of work, the wife is gone....time to throw on some jams and enjoy this 4:20 ......smell yaz later", "created_at": "2013-04-20T19:58:47", "screen_name": "bradsteinagle", "coordinates": {"type": "Point", "coordinates": [-78.86440376, 43.00477013]}},{"text": "\u05e8\u05e7 \u05dc\u05e4\u05e0\u05d9 \u05e9\u05e2\u05d4 \u05d4\u05d9\u05d4 \u05dc\u05d9 2000 \u05e6\u05d9\u05d5\u05e6\u05d9\u05dd \u05d5\u05e6\u05d9\u05d9\u05e6\u05ea\u05d9 \u05e2\u05d5\u05d3 42 \u05d1\u05e9\u05e2\u05d4 #\u05d7\u05d5\u05e4\u05e8\u05ea_\u05d0\u05d5_\u05de\u05d4", "created_at": "2013-04-20T19:58:47", "screen_name": "stav5011527", "coordinates": {"type": "Point", "coordinates": [34.762651, 32.0305898]}},{"text": "Watching Salt", "created_at": "2013-04-20T19:58:48", "screen_name": "BugWright23", "coordinates": {"type": "Point", "coordinates": [12.6170541, 46.0056852]}},{"text": "Bugun, Izmirde cosku vardi S\u00f6\u011fut\u00f6zunde aglama ayini.", "created_at": "2013-04-20T19:58:49", "screen_name": "sevkigunes", "coordinates": {"type": "Point", "coordinates": [32.6883028, 39.8852654]}},{"text": "@NonaMendung kami malah blm smskaliii :s", "created_at": "2013-04-20T19:58:50", "screen_name": "Donnadest", "coordinates": {"type": "Point", "coordinates": [104.7505, -3.02226]}},{"text": "Ou seja, vou dormir", "created_at": "2013-04-20T19:58:50", "screen_name": "majupadua", "coordinates": {"type": "Point", "coordinates": [-47.0169007, -21.4608333]}},{"text": "And baby said, dance magic dance!  #workhorsebar #daydrinking #jukeboxes #saturday @ Workhorse Bar http://t.co/jzpyCdc4oJ", "created_at": "2013-04-20T19:58:51", "screen_name": "ladywhitham", "coordinates": {"type": "Point", "coordinates": [-97.72201626, 30.31784943]}},{"text": "\u0643\u0646 \u0634\u0627\u0643\u0631\u0627 \u0645\u0647\u0645\u0627 \u0643\u0627\u0646\u062a \u0627\u0644\u0623\u0632\u0645\u0627\u062a \u0648\u0627\u0635\u0628\u0631 \u0641\u0627\u0644\u0645\u0639\u062c\u0632\u0629 \u062a\u062d\u062f\u062b \u0641\u064a \u062b\u0648\u0627\u0646 \u0644\u0627 \u0633\u0646\u0648\u0627\u062a", "created_at": "2013-04-20T19:58:52", "screen_name": "Saad3035", "coordinates": {"type": "Point", "coordinates": [41.6851393, 27.50771454]}},{"text": "@aubs801 Hmmmm", "created_at": "2013-04-20T19:58:53", "screen_name": "MariahBaby16", "coordinates": {"type": "Point", "coordinates": [-111.95791945, 40.56450381]}},{"text": "@maria_lima desculpa, mas estou bem mais sexy com o meu!rsrs http://t.co/DnKPHBSrSr", "created_at": "2013-04-20T19:58:54", "screen_name": "serklarvel", "coordinates": {"type": "Point", "coordinates": [-3.7146187, 40.4315867]}},{"text": "I'm at @Staples (Auburn (Syracuse),NY, NY) http://t.co/YsbiDUs93t", "created_at": "2013-04-20T19:58:56", "screen_name": "RowanCrann", "coordinates": {"type": "Point", "coordinates": [-76.542576, 42.955616]}},{"text": "NOS COJIMOS DE LA MANO HICIMOS UN SACRIFICIO NO PERMITIMOS QUE SE NOS DERRUMBARA EL EDIFICIO;24", "created_at": "2013-04-20T19:58:56", "screen_name": "Chiiquinina", "coordinates": {"type": "Point", "coordinates": [-6.1394981, 36.3048706]}},{"text": "Com @mahraawr, @picachu__ (@ DOG DA TIA) http://t.co/KAPK5YhGC2", "created_at": "2013-04-20T19:58:57", "screen_name": "Thatidoaxe", "coordinates": {"type": "Point", "coordinates": [-46.50402049, -23.50367121]}},{"text": "\u05e9\u05d5\u05e8\u05d8 \u05d7\u05d5\u05ea\u05da \u05e4\u05d5\u05e6\u05e2 \u05de\u05db\u05e8\u05e1\u05dd \u05d7\u05d5\u05d3\u05e8 \u05e2\u05de\u05d5\u05e7", "created_at": "2013-04-20T19:58:58", "screen_name": "danielle13795", "coordinates": {"type": "Point", "coordinates": [34.9000654, 31.3289603]}},{"text": "#YoPorCulturaProfetica &lt;3 67", "created_at": "2013-04-20T19:58:59", "screen_name": "michu_duque", "coordinates": {"type": "Point", "coordinates": [-70.6232957, -33.4699364]}},{"text": "Yo + El + Lluvia = Dia Perfecto ^_^ :/", "created_at": "2013-04-20T19:59:01", "screen_name": "Aranxa_Reyes", "coordinates": {"type": "Point", "coordinates": [-69.84949, 18.50703]}},{"text": "Hm pas mal lui. En m\u00eame temps il est metisse donc forc\u00e9ment. Et il chante bien en plus. #TheVoice", "created_at": "2013-04-20T19:59:01", "screen_name": "Aliiiiiiiiiicee", "coordinates": {"type": "Point", "coordinates": [1.95711123, 47.90670393]}},{"text": "I'm at MBTA Bus Stop - Massachusetts Ave &amp; Massachusetts Ave Station (1/CT1/170) (Boston, MA) http://t.co/mQx6U5dLZH", "created_at": "2013-04-20T19:59:02", "screen_name": "JimmyMojiKoda", "coordinates": {"type": "Point", "coordinates": [-71.08321667, 42.34165501]}},{"text": "@conorgalla81 @aisling_kilco Haha good one\ud83c\udf54\ud83c\udf5f\ud83c\udf70", "created_at": "2013-04-20T19:59:02", "screen_name": "JackCarrigy", "coordinates": {"type": "Point", "coordinates": [-8.44938914, 51.883382]}},{"text": "@mikeyy050 ja kittig he", "created_at": "2013-04-20T19:59:03", "screen_name": "Junx__", "coordinates": {"type": "Point", "coordinates": [5.52693433, 52.04408835]}},{"text": "\u041d\u043e\u0447\u044c \u0441\u043a\u0438\u0434\u043e\u043a- \u044d\u0442\u043e \u043f\u0438\u0437\u0434\u0435\u0446!!!!", "created_at": "2013-04-20T19:59:04", "screen_name": "tina_hip", "coordinates": {"type": "Point", "coordinates": [37.84603867, 55.65655918]}},{"text": "Season 5 done and dusted. Great twists! What I'd give to spend a day in Jack Bauer's shoes.", "created_at": "2013-04-20T19:59:05", "screen_name": "LiamKenniford", "coordinates": {"type": "Point", "coordinates": [-2.20628265, 53.80966687]}},{"text": "Reliving my childhood and watching the rugrats movie on vhs", "created_at": "2013-04-20T19:59:07", "screen_name": "kerriannmarie0x", "coordinates": {"type": "Point", "coordinates": [-77.67391971, 43.03252032]}},{"text": "Damn this is a good game.", "created_at": "2013-04-20T19:59:08", "screen_name": "PSiLoveYoux22", "coordinates": {"type": "Point", "coordinates": [-85.68299649, 42.90270688]}},{"text": "@MarkLamb5 oh just don't like getting lied to haha x", "created_at": "2013-04-20T19:59:10", "screen_name": "FarrahCave", "coordinates": {"type": "Point", "coordinates": [-1.22718237, 54.5726967]}},{"text": "#EsquentaTransam\u00e9rica  ser\u00e1 que o @SaoPauloFC  tem alguma chance de ganha a libertadores @tresportes", "created_at": "2013-04-20T19:59:10", "screen_name": "fabiocotiaps", "coordinates": {"type": "Point", "coordinates": [-46.9133135, -23.60293637]}},{"text": "Fababy", "created_at": "2013-04-20T19:59:12", "screen_name": "boujnane_abdel", "coordinates": {"type": "Point", "coordinates": [2.87281395, 48.9755744]}},{"text": "@dzkillinger housewarming tonight??!", "created_at": "2013-04-20T19:59:12", "screen_name": "Joanna_Jo_Jo", "coordinates": {"type": "Point", "coordinates": [-1.28646447, 50.83345395]}},{"text": "\u0414\u0430, \u044f \u0443\u043c\u0435\u044e \u0441\u0442\u0430\u0432\u0438\u0442\u044c \u043d\u0430 \u043f\u0430\u0443\u0437\u0443. [2] http://t.co/DP9wj4AbsC", "created_at": "2013-04-20T19:59:12", "screen_name": "gary_goldfarb_", "coordinates": {"type": "Point", "coordinates": [35.0784267, 48.5318863]}},{"text": "@taynnaguimaraes. Comeu frango hojeeeee ?", "created_at": "2013-04-20T19:59:14", "screen_name": "GabrielleReisL", "coordinates": {"type": "Point", "coordinates": [-43.2937047, -22.7760273]}},{"text": "Nanana tu relajare y d\u00e9jate llevar una melod\u00eda con un toque de sal (8)", "created_at": "2013-04-20T19:59:14", "screen_name": "lauriiita_22", "coordinates": {"type": "Point", "coordinates": [-3.9847219, 40.51864757]}},{"text": "Hoi", "created_at": "2013-04-20T19:59:15", "screen_name": "xannehoi", "coordinates": {"type": "Point", "coordinates": [6.3961958, 52.156607]}},{"text": "\"Getting a puppy from the human society\"", "created_at": "2013-04-20T19:59:15", "screen_name": "freespiritw0lf", "coordinates": {"type": "Point", "coordinates": [-86.24225693, 43.09090165]}},{"text": "Tenho que arrumar o guarda roupa:'(", "created_at": "2013-04-20T19:59:15", "screen_name": "amord_rj", "coordinates": {"type": "Point", "coordinates": [-43.4281175, -22.789697]}},{"text": "@roxanapooh Ole y ole esa castiblanque\u00f1a wapa en la feria jajaajja y el lunes di q tas mala joia", "created_at": "2013-04-20T19:59:18", "screen_name": "JuamMm51", "coordinates": {"type": "Point", "coordinates": [-5.9451507, 37.5455704]}},{"text": "Somos la mala yerba en una planta de maceta", "created_at": "2013-04-20T19:59:18", "screen_name": "Javier_ATM_", "coordinates": {"type": "Point", "coordinates": [0.0235517, 38.8180731]}},{"text": "Well said mister @iamwill #TheVoiceUK", "created_at": "2013-04-20T19:59:19", "screen_name": "larry96matt", "coordinates": {"type": "Point", "coordinates": [0.0, 0.0]}},{"text": "#ChonePlayThis i like it x sammie", "created_at": "2013-04-20T19:59:19", "screen_name": "TheMeaning_", "coordinates": {"type": "Point", "coordinates": [-95.57212829, 30.73331952]}},{"text": "@Harris_Kddt le clown t'emmerde", "created_at": "2013-04-20T19:59:19", "screen_name": "NathanaelMtnz", "coordinates": {"type": "Point", "coordinates": [2.24410973, 48.83551957]}},{"text": "Despu\u00e9s de otro d\u00eda m\u00e1s de gran tenis, un ratito con mis churris. #LasQuieroPoco", "created_at": "2013-04-20T19:59:19", "screen_name": "MirallesLorena", "coordinates": {"type": "Point", "coordinates": [-0.78727994, 37.86105523]}},{"text": "@kinovzglyad \u044f \u043f\u0440\u043e\u0447\u0438\u0442\u0430\u044e \u0438 \u0443\u0437\u043d\u0430\u044e \u0442\u0432\u043e\u0439 \u043f\u0443\u0442\u044c \u0438\u0437\u043b\u0435\u0447\u0435\u043d\u0438\u044f))))", "created_at": "2013-04-20T19:59:23", "screen_name": "Katarina_OS", "coordinates": {"type": "Point", "coordinates": [44.1317588, 56.3338424]}},{"text": "\u060c\u060c\u060c\u060c\u060c\u060c\u060c\u060c\u060c\u060c\u060c\u060c\u060c\u060c\u060c\u060c\u060c\u060c\u060c\u060c\u060c\u060c\u060c\u060c\u060c\u060c\u060c\u060c\u060c\u060c\u060c\u060c\u060c\u060c\u060c\u060c\u060c\u060c\u060c\u060c\u060c\u060c\u060c\u060c\u060c\u060c\u060c\u060c http://t.co/Ltzm1OT5b0", "created_at": "2013-04-20T19:59:24", "screen_name": "rrrr000097", "coordinates": {"type": "Point", "coordinates": [40.4553631, 21.3531017]}},{"text": "420 alone. So sad", "created_at": "2013-04-20T19:59:29", "screen_name": "kjameshansen", "coordinates": {"type": "Point", "coordinates": [-105.28962588, 40.05278016]}},{"text": "@Mulher_s2 claro  ;-)", "created_at": "2013-04-20T19:59:30", "screen_name": "rafaaroy", "coordinates": {"type": "Point", "coordinates": [-46.0160835, -23.797832]}},{"text": "@tribundergi Kardemir Karabukspor'un Mersin macinda 3 dakika icinde 3 topu direkten d\u00f6nd\u00fc, bu sene rekor olsa gerek !", "created_at": "2013-04-20T19:59:34", "screen_name": "ozcanbostanci", "coordinates": {"type": "Point", "coordinates": [29.13465116, 40.99096077]}},{"text": "De nuevo aqu\u00ed.... u.u (at @ApplebeesChile) http://t.co/ucHUXaLV90", "created_at": "2013-04-20T19:59:35", "screen_name": "kai_lita", "coordinates": {"type": "Point", "coordinates": [-70.59959544, -33.41422531]}},{"text": "Just took the best nap ever!!!", "created_at": "2013-04-20T19:59:35", "screen_name": "HowardJoel", "coordinates": {"type": "Point", "coordinates": [-84.4344769, 33.46035353]}},{"text": "I'm at scumbag spot http://t.co/j9GjGDyj40", "created_at": "2013-04-20T19:59:35", "screen_name": "AndrisCirulis", "coordinates": {"type": "Point", "coordinates": [24.14895896, 56.96049432]}},{"text": "\u200f\u200b\u0623\u0644\u0627\u0650\u06be\u062a\u0645\u0627\u0645 \n\u0647\u0648 \u0627\u062c\u0645\u0651\u0644 \u0647\u062f\u064a\u06c1\n\u064a\u064f\u0642\u062f\u0645\u06be\u0627 \u0627\u0644\u0625\u0646\u0633\u0627\u0646 \n\u0644\u0650\u0645\u0646 \u064a\u064f\u062d\u0628 \u2665.", "created_at": "2013-04-20T19:59:35", "screen_name": "awalsalahat", "coordinates": {"type": "Point", "coordinates": [47.9685361, 29.3212097]}},{"text": "How I met your mother, now this show is just mmmmmwah!", "created_at": "2013-04-20T19:59:39", "screen_name": "Ebzi33", "coordinates": {"type": "Point", "coordinates": [0.10956143, 51.48714159]}},{"text": "What's with this 420", "created_at": "2013-04-20T19:59:40", "screen_name": "tinobabanla", "coordinates": {"type": "Point", "coordinates": [3.27787, 6.65396]}},{"text": "Time to get my hur did", "created_at": "2013-04-20T19:59:40", "screen_name": "Brooklyn______", "coordinates": {"type": "Point", "coordinates": [-119.56888928, 36.08899364]}},{"text": "Breakfast at the legendary Silver Skillet in #Atlanta. #travel http://t.co/La9XKHhGjT", "created_at": "2013-04-20T19:59:42", "screen_name": "CKstenberg", "coordinates": {"type": "Point", "coordinates": [-84.42938137, 33.63985437]}},{"text": "@liefsnoa iemand anoniem verrassen met een tweet? Volg @Twanoniem, stuur ze je tekst in DM en zij tweeten het! 100%  anoniem", "created_at": "2013-04-20T19:59:43", "screen_name": "hetspijtme", "coordinates": {"type": "Point", "coordinates": [-73.938611, 40.664167]}},{"text": "acerta*", "created_at": "2013-04-20T19:59:44", "screen_name": "fran_riibeiro", "coordinates": {"type": "Point", "coordinates": [-48.8765285, -23.97970245]}},{"text": "Her\u015feyi kutluyoruz:) @ Shominne | Restaurant Lounge Bar http://t.co/pOkB4NMGMD", "created_at": "2013-04-20T19:59:45", "screen_name": "_nida33", "coordinates": {"type": "Point", "coordinates": [34.51691776, 36.73386345]}},{"text": "Kain tayo. Krispy Kreme :-)", "created_at": "2013-04-20T19:59:46", "screen_name": "veronicavispo", "coordinates": {"type": "Point", "coordinates": [51.5302452, 25.2718034]}},{"text": "\u0627\u0633\u0645 \u0627\u0645\u0643 \u0646\u0648\u0631\u0647 :-) #\u0627\u0646\u062a\u064a_\u062c\u0645\u064a\u0644\u0647_\u0627\u0630\u0627", "created_at": "2013-04-20T19:59:46", "screen_name": "dalals91", "coordinates": {"type": "Point", "coordinates": [46.704939, 24.7724533]}},{"text": "Looking forward to one of the most insane 3 months of my life.. #canada #nyc #losangeles #boston #phuket #london", "created_at": "2013-04-20T19:59:50", "screen_name": "adeshbhansali", "coordinates": {"type": "Point", "coordinates": [72.79578758, 18.95391202]}},{"text": "@luansantana mooor, me ve aki por favor! Segue tbm... Vc nunca me ve ;( vou choraaaar 8", "created_at": "2013-04-20T19:59:52", "screen_name": "tiesperandols", "coordinates": {"type": "Point", "coordinates": [-48.1679089, -21.1987256]}},{"text": "@Muhmed_22 @7maad9", "created_at": "2013-04-20T19:59:52", "screen_name": "goman221", "coordinates": {"type": "Point", "coordinates": [39.8429065, 21.43643205]}},{"text": "Lmfao everytime my mom says something she gets interrupted by someone \ud83d\ude02\ud83d\ude02 @katherinexelena can relate to someone\ud83d\ude02", "created_at": "2013-04-20T19:59:52", "screen_name": "Juici_P", "coordinates": {"type": "Point", "coordinates": [-75.22318734, 39.93959301]}},{"text": "nsss qe analfa", "created_at": "2013-04-20T19:59:54", "screen_name": "fran_riibeiro", "coordinates": {"type": "Point", "coordinates": [-48.8759862, -23.9821138]}},{"text": "@michaelvampire Dude ur random Lol follow me plz", "created_at": "2013-04-20T19:59:54", "screen_name": "laroccomia", "coordinates": {"type": "Point", "coordinates": [-85.867188, 38.1692271]}},{"text": "I haven't purchased a beer that isn't from Ireland or Canada in about 4 years.", "created_at": "2013-04-20T19:59:55", "screen_name": "UG_Smedley", "coordinates": {"type": "Point", "coordinates": [-78.4222237, 42.0998853]}},{"text": "2-0 out here , we get Ws \ud83d\udc4c @b_davis09 @EthanParkhurst0", "created_at": "2013-04-20T19:59:57", "screen_name": "ARacks_TTU", "coordinates": {"type": "Point", "coordinates": [-118.36654424, 33.89472504]}},{"text": "@AizGura \u0434\u0430 \u044f \u0442\u0430\u043a\u0430\u044f", "created_at": "2013-04-20T19:59:58", "screen_name": "Sawenqaaa", "coordinates": {"type": "Point", "coordinates": [24.0095031, 56.9620623]}},{"text": "*\u0323_\u0627\u062e\u062e\u0628\u0631\u0648\u0627 \u062a\u0650\u0644\u0643 \u0627\u0644\u0633\u062e\u064a\u0641\u0629\u0629 \u0628\u0623\u0646 \u0627\u064e\u0645\u0631\u0647\u0647\u0627\u0627\u064e \u0644\u0645\u0651 \u064a\u0639\u062f \u064a\u064e\u0639\u0646\u064a\u0646\u064a \u0622\u0628\u062f\u0627\u064b", "created_at": "2013-04-20T19:59:59", "screen_name": "Algoori_1818", "coordinates": {"type": "Point", "coordinates": [39.94994427, 21.48282038]}},{"text": "Cara eu lembrei de uma fic que eu li, s\u00f3 tinha sexo a fic toda parecia que eu tava lendo 50 tons de cinza meu Deus kkkkkk", "created_at": "2013-04-20T19:59:59", "screen_name": "circlewithnarry", "coordinates": {"type": "Point", "coordinates": [-59.99929348, -3.06449228]}},{"text": "3:00 life :-) http://t.co/tZKB6lvw5K", "created_at": "2013-04-20T20:00:00", "screen_name": "DMarchese10", "coordinates": {"type": "Point", "coordinates": [-94.4757907, 39.0202953]}},{"text": "Residential Lease,$1450/m,77386 http://t.co/Elp47u7281 Coldwell Banker United, Realtors- The Woodlands #Spring", "created_at": "2013-04-20T20:00:00", "screen_name": "PamsHomeTeam", "coordinates": {"type": "Point", "coordinates": [-95.392288, 30.119816]}},{"text": "Bia aqui em casa morrendo por causa do zeus !", "created_at": "2013-04-20T20:00:00", "screen_name": "yaahferreira", "coordinates": {"type": "Point", "coordinates": [-43.94146122, -19.88851371]}},{"text": "Somos lo que hacemos d\u00eda a d\u00eda. De modo que la excelencia no es un acto sino un h\u00e1bito. Arist\u00f3teles http://t.co/Y5VT6IpUtm", "created_at": "2013-04-20T20:00:01", "screen_name": "ElislotedeCaro", "coordinates": {"type": "Point", "coordinates": [-6.0424581, 37.354752]}},{"text": "Traigo bien pegajoso el pelo \ud83d\ude2d pero no me lo puedo enjuagar hasta ma\u00f1ana", "created_at": "2013-04-20T20:00:04", "screen_name": "LoreniaHurtado", "coordinates": {"type": "Point", "coordinates": [-117.0017466, 32.49975277]}},{"text": "Meyhaneler sokaginin keyfi yerinde.... (@ Deniz Feneri w/ 10 others) http://t.co/FCuU5A5v1N", "created_at": "2013-04-20T20:00:06", "screen_name": "bodrumozlemi", "coordinates": {"type": "Point", "coordinates": [27.43160317, 37.03591744]}},{"text": "@MeqdadRazan \u0642\u0648\u0644\u062a\u0643...\u0648\u0627\u0644\u064a \u0628\u0633\u0645\u0639\u0647 \u0645\u0646 \u0627\u0644\u0628\u0646\u0627\u062a \u0639\u0631\u0637 \u0634\u0643\u0644\u0647", "created_at": "2013-04-20T20:00:09", "screen_name": "shoshosmadi", "coordinates": {"type": "Point", "coordinates": [36.0890993, 32.088068]}},{"text": "On \u00e9coute du Tom Soyer svpppp", "created_at": "2013-04-20T20:00:10", "screen_name": "A_1Dgirlfriends", "coordinates": {"type": "Point", "coordinates": [1.8922595, 47.8478019]}},{"text": "\u3010\u5fae\u5c0f\u5730\u9707\u901f\u5831 \u305d\u306e\u4ed6\u6d77\u57df20\u3011\n4\u664220\u5206\u9803\u3001\u5973\u5ddd\u539f\u767a\u306e\u677154km\u3001\u5317\u7def38.4 \u6771\u7d4c142.1\u306e\u6df1\u305529.1km\u3067M2.1\u306e\u5730\u9707\u304c\u767a\u751f\u3057\u305f\u307f\u305f\u3044\u3067\u3059\u3088\u3002\nhttp://t.co/z2l4ENull6", "created_at": "2013-04-20T20:00:12", "screen_name": "earthquake_all4", "coordinates": {"type": "Point", "coordinates": [142.1186, 38.3755]}},{"text": "Nikt mnie nie kocha ;( Dobranoc xx", "created_at": "2013-04-20T20:00:12", "screen_name": "asiunia44", "coordinates": {"type": "Point", "coordinates": [20.3960367, 53.1279903]}},{"text": "@champcarranza You know it!", "created_at": "2013-04-20T20:00:14", "screen_name": "SylviaKrkic", "coordinates": {"type": "Point", "coordinates": [-98.50211341, 29.41503669]}},{"text": "H\u00e9 h\u00e9 h\u00e9 diiiis dooooont il me faut \u00e7a *Gohou Voice*", "created_at": "2013-04-20T20:00:14", "screen_name": "cocosofiane", "coordinates": {"type": "Point", "coordinates": [2.4912571, 48.8451199]}},{"text": "@tracytran smh.", "created_at": "2013-04-20T20:00:15", "screen_name": "Nationals101", "coordinates": {"type": "Point", "coordinates": [-77.0421719, 38.8318751]}},{"text": "Vindo pra ca eu e meu irmao fizemos varios videos no video star", "created_at": "2013-04-20T20:00:15", "screen_name": "caiomeutudo", "coordinates": {"type": "Point", "coordinates": [-41.9221494, -22.77631598]}},{"text": "Remember all about you.", "created_at": "2013-04-20T20:00:15", "screen_name": "BayoeSatria_", "coordinates": {"type": "Point", "coordinates": [115.0815004, -8.1181268]}},{"text": "Drinking a Pale Ale by @TroegsBeer @ Smith's Home \u2014 http://t.co/NXENi8wQvo", "created_at": "2013-04-20T20:00:17", "screen_name": "NINmikes", "coordinates": {"type": "Point", "coordinates": [-76.2885, 39.4785]}},{"text": "Grand Rapids  Civil emergency #traffic http://t.co/xxSCs7T9oz", "created_at": "2013-04-20T20:00:18", "screen_name": "TotalTrafficGRR", "coordinates": {"type": "Point", "coordinates": [-85.66683, 42.96469]}},{"text": "@quilantan26 tambien no le ase", "created_at": "2013-04-20T20:00:18", "screen_name": "Joze_alcantar", "coordinates": {"type": "Point", "coordinates": [-95.27760209, 29.67178452]}},{"text": "I'm loving @voiceUKbbc this year!!", "created_at": "2013-04-20T20:00:19", "screen_name": "Chloe_Hilton", "coordinates": {"type": "Point", "coordinates": [1.23519941, 52.30466617]}},