[{"text": "@nemenyema \u044f \u043f\u0440\u043e\u0432\u0435\u0440\u044f\u043b \u0434\u0430\u0432\u043d\u043e,\u044f \u043d\u0443\u0436\u0435\u043d \u0442\u043e\u043a\u0430 \u0418\u0432\u0430\u043d\u0443\u0443\u0443\u0443", "created_at": "2013-04-16T17:57:00", "screen_name": "wwwBodywww", "coordinates": {"type": "Point", "coordinates": [39.7386925, 47.1311229]}},{"text": "@__eatyourdemons you seem like such a nice, fun, genuine person. I don't understand how you could annoy anyone!", "created_at": "2013-04-16T17:57:02", "screen_name": "IoserIoI", "coordinates": {"type": "Point", "coordinates": [-113.5053988, 53.54998757]}},{"text": "\u041e\u0442\u043a\u0440\u044b\u0432\u0430\u044e \u0441\u0435\u0437\u043e\u043d! \u0423\u0440\u0440\u0430! (@ \u041f\u043b\u043e\u0449\u0430\u0434\u044c \u0414\u0436\u0430\u0432\u0430\u0445\u0430\u0440\u043b\u0430\u043b\u0430 \u041d\u0435\u0440\u0443 w/ 3 others) http://t.co/eT5HUH5lHc", "created_at": "2013-04-16T17:57:02", "screen_name": "fluffy_polly", "coordinates": {"type": "Point", "coordinates": [37.53574411, 55.6933974]}},{"text": "holahola", "created_at": "2013-04-16T17:57:08", "screen_name": "CarlaConsueloRS", "coordinates": {"type": "Point", "coordinates": [-73.3494155, -37.4757369]}},{"text": "@AlperErgul_ sa\u011fl\u0131k olsun art\u0131k nabal\u0131m :D", "created_at": "2013-04-16T17:57:09", "screen_name": "AksoyluInci", "coordinates": {"type": "Point", "coordinates": [32.74568405, 39.96054869]}},{"text": "#Weekend with #kids tons of #fun #childhood @ Bola de Oro http://t.co/e7pJJRm2mI", "created_at": "2013-04-16T17:57:09", "screen_name": "imherhm", "coordinates": {"type": "Point", "coordinates": [-96.8810463, 19.5086775]}},{"text": "S\u00e9rio, aula pra que ? Agora tenho que ficar aqui sem fazer nada. Vou dormir", "created_at": "2013-04-16T17:57:11", "screen_name": "juplush", "coordinates": {"type": "Point", "coordinates": [-46.6185237, -23.6769167]}},{"text": "Ya viene el faltosin de @nel_sporting a joderme la tranquilidad de la casa", "created_at": "2013-04-16T17:57:11", "screen_name": "LlaraLopez", "coordinates": {"type": "Point", "coordinates": [-5.974107, 43.56061393]}},{"text": "\u041a \u0441\u0443\u0431\u0431\u043e\u0442\u043d\u0438\u043a\u0443 \u0433\u043e\u0442\u043e\u0432 @ IB's Apartment http://t.co/T9DQKI68q8", "created_at": "2013-04-16T17:57:13", "screen_name": "saveniren", "coordinates": {"type": "Point", "coordinates": [38.92303215, 47.28251166]}},{"text": "I think Pathan brothers should retire from all the  format's !! #PepsiIPL #ipl6 #RCBvsDD", "created_at": "2013-04-16T17:57:14", "screen_name": "naresh_qcc", "coordinates": {"type": "Point", "coordinates": [80.26036892, 13.09052674]}},{"text": "Una lastima q se le va a hacer", "created_at": "2013-04-16T17:57:15", "screen_name": "estaconfirmado", "coordinates": {"type": "Point", "coordinates": [-58.279298, -34.7676839]}},{"text": "Je crois que cest @Kemng qui va sortir avec Rone plut\u00f4t #looool", "created_at": "2013-04-16T17:57:16", "screen_name": "JeanneDeligeard", "coordinates": {"type": "Point", "coordinates": [2.4784099, 48.8393804]}},{"text": "E com o tempo, a tempestade vai passando e tudo vai voltando ao seu devido lugar.....", "created_at": "2013-04-16T17:57:16", "screen_name": "Luccaprodrigues", "coordinates": {"type": "Point", "coordinates": [-34.89662511, -8.05307876]}},{"text": "Getting on the sunbed selfie bandwagon #sunbed #selfie #pose #blue #uv #tan @ Kwik tan http://t.co/u4JPiymQR3", "created_at": "2013-04-16T17:57:18", "screen_name": "EmsySmeyes", "coordinates": {"type": "Point", "coordinates": [-1.61168623, 54.97451577]}},{"text": "I'm bored so ima look over chandler shoulder &amp;&amp; see what his tl talkin bout", "created_at": "2013-04-16T17:57:20", "screen_name": "FuckSwag_LDM", "coordinates": {"type": "Point", "coordinates": [-87.49255731, 36.88001073]}},{"text": "And the French Keeness award goes to moi :-) Mr. Pietropaoli's getting me a twix awh love him :3 http://t.co/0W4jFJHwPQ", "created_at": "2013-04-16T17:57:21", "screen_name": "Rafadoodlies", "coordinates": {"type": "Point", "coordinates": [-0.85086219, 52.25140283]}},{"text": "@Chanelwtm copy meeeeeee.", "created_at": "2013-04-16T17:57:22", "screen_name": "AdenCBP", "coordinates": {"type": "Point", "coordinates": [103.89299605, 1.37899627]}},{"text": "@claunittaaa if I decide to go you're coming with lol", "created_at": "2013-04-16T17:57:22", "screen_name": "Dee5Lee", "coordinates": {"type": "Point", "coordinates": [-121.42308954, 38.56218777]}},{"text": "anaiis , daan is gewoon knapper , en vera dit is gewoon ernstig. @xanaisvanhaaren @VeraWeelink http://t.co/HlVvxu5PAs", "created_at": "2013-04-16T17:57:22", "screen_name": "xkellyvanembden", "coordinates": {"type": "Point", "coordinates": [6.5991539, 52.0434789]}},{"text": "\u3010\u6975\u5fae\u5c0f\u5730\u9707\u901f\u5831 IC\u3011\u54c1\u8cea90.0\n\u65e5\u672c\u6642\u95934\u670817\u65e52\u664236\u5206\u9803\u3001\u30c0\u30a6\u30f3\u30ec\u30a4\u539f\u5b50\u529b\u30bb\u30f3\u30bf\u30fcGB\u306e\u5317\u897f1058km\u3001\u30a2\u30a4\u30b9\u30e9\u30f3\u30c9\u5171\u548c\u56fd \u00c1rnes\u306e\u5357\u6771 15.1km\u3067M0.2\u306e\u5730\u9707\u304c\u767a\u751f\u3057\u305f\u307f\u305f\u3044\u3067\u3059\u3088\u3002\nhttp://t.co/mvhp0QMOG0", "created_at": "2013-04-16T17:57:29", "screen_name": "earthquake_all6", "coordinates": {"type": "Point", "coordinates": [-20.008, 63.958]}},{"text": "Malas amik port lg dah .layan mcm apa tah", "created_at": "2013-04-16T17:57:30", "screen_name": "hairiiiiiii", "coordinates": {"type": "Point", "coordinates": [101.77555924, 2.94948473]}},{"text": "Come on Everton!!!!! #EFC", "created_at": "2013-04-16T17:57:30", "screen_name": "apples_15", "coordinates": {"type": "Point", "coordinates": [-80.25148216, 27.18357816]}},{"text": "No entiendo que flashan, ni que le flashan, pero me da bronk", "created_at": "2013-04-16T17:57:31", "screen_name": "Dani_Formoso", "coordinates": {"type": "Point", "coordinates": [-57.90189736, -34.86063567]}},{"text": "@jsaddd4 hangout with me soon I miss ypu", "created_at": "2013-04-16T17:57:31", "screen_name": "KaitWatson94", "coordinates": {"type": "Point", "coordinates": [-76.72841907, 39.94756093]}},{"text": "When he calls you babe http://t.co/hkVI9KDOJM", "created_at": "2013-04-16T17:57:31", "screen_name": "MrBoellebob", "coordinates": {"type": "Point", "coordinates": [12.4930862, 55.9347697]}},{"text": "@daantjedekker99 @Erriiih vertel erwan maar niet ssssst", "created_at": "2013-04-16T17:57:34", "screen_name": "SterreTARA", "coordinates": {"type": "Point", "coordinates": [6.6227273, 53.17022871]}},{"text": "@vishpisguila p vc nao esquecer: \ud83d\ude0d\ud83d\udc95\ud83d\udc95\ud83d\ude0d", "created_at": "2013-04-16T17:57:34", "screen_name": "alohaiara", "coordinates": {"type": "Point", "coordinates": [-48.29744474, -18.91054076]}},{"text": "When you make up something just to talk to somebody lol I just did that", "created_at": "2013-04-16T17:57:35", "screen_name": "KZ_Welch", "coordinates": {"type": "Point", "coordinates": [-86.69502793, 33.42319435]}},{"text": "Pense que ai esta num sono bom rsrsrs @ J.Gomes Pneus http://t.co/Gp70V6pTA9", "created_at": "2013-04-16T17:57:37", "screen_name": "jp9oficial", "coordinates": {"type": "Point", "coordinates": [-39.0125901, -10.5039196]}},{"text": "\u201c@serrjj: @victorialeebeee careful I'm reporting u guys. @mgarza_17 \u270b\u201d XCUSE U. WE DO WAT U WANT \ud83d\udc81", "created_at": "2013-04-16T17:57:40", "screen_name": "mgarza_17", "coordinates": {"type": "Point", "coordinates": [-97.02023152, 33.04013588]}},{"text": "@deardarien IM IN CLASS", "created_at": "2013-04-16T17:57:41", "screen_name": "morgan_kellyy", "coordinates": {"type": "Point", "coordinates": [-88.38142545, 39.41728719]}},{"text": "Lmfao Really Tho ! Making me seem like a staright punk.. I dont be deserving that aha", "created_at": "2013-04-16T17:57:44", "screen_name": "YesImThatGreat", "coordinates": {"type": "Point", "coordinates": [-118.09098006, 34.16299742]}},{"text": "Mais \u00e9coutez \u00e7a va, je mange du taboul\u00e9 sur le tabouret de ma cuisine, y a pire comme situation", "created_at": "2013-04-16T17:57:45", "screen_name": "camillehattu", "coordinates": {"type": "Point", "coordinates": [2.29510653, 48.84096676]}},{"text": "@Moscow_advokat \u0421\u0442\u0430\u043b\u0438\u043d \u0445\u0438\u0442\u0440\u043e \u0443\u043b\u044b\u0431\u0430\u0435\u0442\u0441\u044f", "created_at": "2013-04-16T17:57:45", "screen_name": "garik_211", "coordinates": {"type": "Point", "coordinates": [37.77830519, 55.75219596]}},{"text": "Capotar!", "created_at": "2013-04-16T17:57:46", "screen_name": "laarisampaio", "coordinates": {"type": "Point", "coordinates": [-56.05441204, -15.58758353]}},{"text": "@laismmoulin qual a materia de algebra ? Kk \ud83d\ude01", "created_at": "2013-04-16T17:57:47", "screen_name": "dreamsinmind", "coordinates": {"type": "Point", "coordinates": [-44.3062686, -22.99795884]}},{"text": "@Badr_Alzidane \u0648\u064a\u0623\u062a\u064a \u0627\u0644\u0645\u0633\u0627\u0627\u0621 \u0645\u062a\u062c\u062f\u062f\u0627\u064b \u0628\u062d\u064c\u0644\u06c1'\u0647\u064e \u0647\u0627\u0627\u062f\u0626\u06c1'\u0647\u064f \u060c\n \u0645\u0633\u0627\u0621 : \u0627\u0644\u062e\u064a\u0651\u0631 \u064a\u064e \u0645\u0646 \u0623\u062d\u0628\u064f\u0647\u0645\u064f \u2661\u2661", "created_at": "2013-04-16T17:57:47", "screen_name": "noonoo19472", "coordinates": {"type": "Point", "coordinates": [42.28287486, 18.09307635]}},{"text": "@sungnoii \u0e0b\u0e37\u0e49\u0e2d\u0e41\u0e1a\u0e49\u0e27\u0e19\u0e30 \u0e01\u0e34\u0e49\u0e27\u0e46 @ Houston Galleria http://t.co/Y9yeNLrKLv", "created_at": "2013-04-16T17:57:49", "screen_name": "pukpui1D", "coordinates": {"type": "Point", "coordinates": [-95.463664, 29.73933054]}},{"text": "Bru nyampe nih sob RT \"@neysia: Niatnya sih jam setengah 11 udah terlelap. Tp apa,jam segini masih beloo banget..\"", "created_at": "2013-04-16T17:57:49", "screen_name": "rikosuari", "coordinates": {"type": "Point", "coordinates": [106.7624905, -6.1537038]}},{"text": "\u0627\u062d\u0633\u0627\u0633\u0647\u0627 \u0645\u0627\u062a \u0644\u064a\u062a\u0647 \u0639\u0627\u0634 \u0645\u062a\u0646\u0643\u0651\u0631 \u0639\u0644\u0649 \u0627\u0644\u0623\u0642\u0644 \u0644\u0627\u0632\u0641\u0631\u062a \u0627\u0644\u0622\u0647 \u062d\u0633\u0651\u062a\u0647\u0627 ! \u0645\u0627\u0639\u0645\u0631\u0647\u0627 \u0641\u064a\u0646\u064a \u0627\u0647\u062a\u0645\u0651\u062a / \u0648\u0644\u0627\u062a\u0641\u0643\u0651\u0631 \u0648\u0625\u0646 \u0641\u0643\u0651\u0631\u062a \u0628\u0633 \u062a\u0641\u0643\u0651\u0631 \u0641\u064a \u0648\u0646\u0627\u0633\u062a\u0647\u0627 !", "created_at": "2013-04-16T17:57:50", "screen_name": "mariyamalotaibi", "coordinates": {"type": "Point", "coordinates": [48.12343, 29.08498]}},{"text": "@LucasFouchard Faut ouvrir les yeux et arr\u00eater de se faire manipuler par les m\u00e9dias. Ils manipulent encore plus que les politiques mdr.", "created_at": "2013-04-16T17:57:52", "screen_name": "ThibautLehaire", "coordinates": {"type": "Point", "coordinates": [-0.26971883, 49.27756112]}},{"text": "La vida me dijo a gritos que nunca te tuve y nunca te perdi8\"", "created_at": "2013-04-16T17:57:53", "screen_name": "MichelleSchz", "coordinates": {"type": "Point", "coordinates": [-66.8545406, 10.6179531]}},{"text": "Ma quando cazzo arriva l'estate!?\nI NEED SUMMER! NOW!", "created_at": "2013-04-16T17:57:53", "screen_name": "AlbertoFermini", "coordinates": {"type": "Point", "coordinates": [8.97158184, 45.06376877]}},{"text": "@paulamonfre_ fiquei bolado", "created_at": "2013-04-16T17:57:54", "screen_name": "gabrerror", "coordinates": {"type": "Point", "coordinates": [-47.3150186, -22.7350967]}},{"text": "But her afro's all up in her face", "created_at": "2013-04-16T17:57:56", "screen_name": "Jump1nThisRide", "coordinates": {"type": "Point", "coordinates": [-0.54813338, 51.32400349]}},{"text": "Selinay benim herseyim", "created_at": "2013-04-16T17:57:58", "screen_name": "mbogacaci", "coordinates": {"type": "Point", "coordinates": [27.0756336, 38.47606637]}},{"text": "Struggling to write these last 2 essays:( http://t.co/SUtHlqpsry", "created_at": "2013-04-16T17:58:01", "screen_name": "meganstevensonn", "coordinates": {"type": "Point", "coordinates": [-3.18741475, 56.1346562]}},{"text": "Don't Judge Someone's Attitude Until You Have Felt Their Pain.", "created_at": "2013-04-16T17:58:03", "screen_name": "PhetlaFentse", "coordinates": {"type": "Point", "coordinates": [29.304348, -25.90723]}},{"text": "Ik hou van de mensen die mijn knuffelen wanneer ik het nodig heb, waarbij ik op de schouder kan steunen wanneer ik moet huilen.", "created_at": "2013-04-16T17:58:04", "screen_name": "samantha6456", "coordinates": {"type": "Point", "coordinates": [5.9326355, 50.9725964]}},{"text": "Laying out under the sun for a devotional makes this sabbath amazing #MyGodTime", "created_at": "2013-04-16T17:58:05", "screen_name": "PeterJTitone", "coordinates": {"type": "Point", "coordinates": [-81.86739674, 26.60288437]}},{"text": "\u201c@georgiapearsee: Ahhhhh, I don't know what to doo\ud83d\ude46\u201d", "created_at": "2013-04-16T17:58:05", "screen_name": "ChannaMielke", "coordinates": {"type": "Point", "coordinates": [-75.67489063, 36.01111264]}},{"text": "There's not many things that I love more than a daytime thunderstorm. \u26a1\u2614", "created_at": "2013-04-16T17:58:06", "screen_name": "taywellsxo", "coordinates": {"type": "Point", "coordinates": [-90.11983356, 38.97055645]}},{"text": "#24A", "created_at": "2013-04-16T17:58:06", "screen_name": "NaatiGaray", "coordinates": {"type": "Point", "coordinates": [-55.92293, -27.35904]}},{"text": "Para qu\u00e9 me secuestren.", "created_at": "2013-04-16T17:58:07", "screen_name": "Rasjnoch", "coordinates": {"type": "Point", "coordinates": [-99.21627692, 19.34117015]}},{"text": "@Gabii_Eleuterio @Este_Mendes nem brinca kkkk... Twitter n\u00e3o tem tanta privacidade rs. Em quest\u00e3o disso,facebook \u00e9 mais seguro.", "created_at": "2013-04-16T17:58:08", "screen_name": "PedroAugustoCFR", "coordinates": {"type": "Point", "coordinates": [-44.3574109, -22.4702819]}},{"text": "Oulala", "created_at": "2013-04-16T17:58:08", "screen_name": "Chloe_Lfv", "coordinates": {"type": "Point", "coordinates": [2.3000173, 48.79678426]}},{"text": "@AgattaAska gawe sopo kuwi statsmu :(", "created_at": "2013-04-16T17:58:09", "screen_name": "AdisantAs", "coordinates": {"type": "Point", "coordinates": [106.8316699, -6.2446122]}},{"text": "@Avenger_TeDzY aha", "created_at": "2013-04-16T17:58:10", "screen_name": "ArthurLiek", "coordinates": {"type": "Point", "coordinates": [6.13765254, 49.11583645]}},{"text": "@yyesenia_ lmfao ew", "created_at": "2013-04-16T17:58:10", "screen_name": "vaaleerriie", "coordinates": {"type": "Point", "coordinates": [-118.29824681, 34.26272198]}},{"text": "Aw Jessica is the cutest with her little notes\ud83d\ude0b\ud83d\udc95 http://t.co/i0FVcplxSl", "created_at": "2013-04-16T17:58:15", "screen_name": "Elizabethleighh", "coordinates": {"type": "Point", "coordinates": [-81.56816692, 28.2984624]}},{"text": "@ViniciuscomU vem amor", "created_at": "2013-04-16T17:58:16", "screen_name": "Gabrielaa_onne", "coordinates": {"type": "Point", "coordinates": [-48.8885955, -10.1631632]}},{"text": "@Thirsavb Ah jammer !", "created_at": "2013-04-16T17:58:18", "screen_name": "JenniferYoloo", "coordinates": {"type": "Point", "coordinates": [5.9862272, 52.98221589]}},{"text": "@Cotey27 love u I do xxxx", "created_at": "2013-04-16T17:58:18", "screen_name": "Frenchie2606", "coordinates": {"type": "Point", "coordinates": [-2.08744999, 52.60787771]}},{"text": "@hellodollsilly me stalkeia", "created_at": "2013-04-16T17:58:19", "screen_name": "thaluyacarvalho", "coordinates": {"type": "Point", "coordinates": [-46.32850444, -23.96094177]}},{"text": "@caralholana_ Booa Tarde Linda ^^", "created_at": "2013-04-16T17:58:20", "screen_name": "douglashenr", "coordinates": {"type": "Point", "coordinates": [-40.061211, -19.3893173]}},{"text": "\"Marines don't die, they just go to Hell and regroup\"", "created_at": "2013-04-16T17:58:20", "screen_name": "LuisHigareda_16", "coordinates": {"type": "Point", "coordinates": [-89.7719588, 35.14852384]}},{"text": "Almo\u00e7o com minha irm\u00e3 de toda vida! bethszafir @ Restaurante Gero http://t.co/ccPO52M2e8", "created_at": "2013-04-16T17:58:21", "screen_name": "GIGI_MONTEIRO", "coordinates": {"type": "Point", "coordinates": [-46.66891435, -23.56457459]}},{"text": "Garder son sang froid c'est dur des fois ...", "created_at": "2013-04-16T17:58:23", "screen_name": "AnthoniDos", "coordinates": {"type": "Point", "coordinates": [2.4025595, 48.83391]}},{"text": "@JessAldous93 Excuses, excuses! #crazywoman", "created_at": "2013-04-16T17:58:24", "screen_name": "saldous_23", "coordinates": {"type": "Point", "coordinates": [1.0294241, 51.2584216]}},{"text": "@KevOdkaaBiitch j'ai jurer qe non mnt", "created_at": "2013-04-16T17:58:25", "screen_name": "Ciiindoush92", "coordinates": {"type": "Point", "coordinates": [2.22292424, 48.88097321]}},{"text": "@biancabeauchamp shit happen... Bon courrage :(", "created_at": "2013-04-16T17:58:27", "screen_name": "FFNCollector", "coordinates": {"type": "Point", "coordinates": [2.36155555, 48.92022645]}},{"text": "@ahmetercann5 @oet37 @an1luguz burada \u00e7ok feyizli karde\u015fler var ... @ahmetercann5 (@ Vefa Yurdu) http://t.co/MTvVIHhPAg", "created_at": "2013-04-16T17:58:29", "screen_name": "Myilmaz94", "coordinates": {"type": "Point", "coordinates": [30.53884138, 37.81206185]}},{"text": "@ChrizJayy what song...way to send me your songs Chris! :/", "created_at": "2013-04-16T17:58:32", "screen_name": "xhenisejdiraj", "coordinates": {"type": "Point", "coordinates": [-72.7670706, 41.6832689]}},{"text": "http://t.co/DbfOg2Y0xe\n\nHomemade dog treats", "created_at": "2013-04-16T17:58:36", "screen_name": "nicolemanny08", "coordinates": {"type": "Point", "coordinates": [-74.3228675, 40.523893]}},{"text": "@_danarichele literally wanted to kill myself that entire class omfg", "created_at": "2013-04-16T17:58:40", "screen_name": "beinghymen", "coordinates": {"type": "Point", "coordinates": [-73.69093671, 43.33025565]}},{"text": "@NilsMum hic uzulme. altugunun boyle cok gecesi oldu halen yasiyor ve saglikli. \u0130natlastikca kendin yipraniyorsun. Cocuklarda daha inatci", "created_at": "2013-04-16T17:58:40", "screen_name": "bebeimgeliyor", "coordinates": {"type": "Point", "coordinates": [29.09577374, 40.9574702]}},{"text": "\u041f\u043e\u0436\u0430\u043b\u0443\u0439\u0441\u0442\u0430, \u043f\u043e\u0436\u0430\u043b\u0443\u0439\u0441\u0442\u0430! \u0412\u0435\u0440\u043d\u0438\u0442\u0435 \u0432\u0441\u0435 \u043e\u0431\u0440\u0430\u0442\u043d\u043e! \u042f \u0431\u043e\u043b\u044c\u0448\u0435 \u043d\u0435 \u0431\u0443\u0434\u0443, \u0447\u0435\u0441\u0442\u043d\u043e! \u042f \u0437\u043d\u0430\u044e, \u0433\u0434\u0435 \u044f \u043e\u0448\u0438\u0431\u043b\u0430\u0441\u044c! \u041f\u043e\u0436\u0430\u043b\u0443\u0439\u0441\u0442\u0430, \u043f\u0440\u043e\u0448\u0443! \u041e\u0441\u0442\u0430\u043d\u043e\u0432\u0438\u0442\u0435 \u044d\u0442\u043e! \u041f\u0440\u043e\u0448\u0443!", "created_at": "2013-04-16T17:58:44", "screen_name": "milodiva50", "coordinates": {"type": "Point", "coordinates": [41.9792884, 45.046264]}},{"text": "\u064a\u0627\u0644\u0644\u0647 \u062a\u062d\u0642\u0642 \u0627\u0645\u0627\u0646\u064a\u0646\u0646\u0627 \u0648\u062a\u0631\u0632\u0642\u0646\u0627 \u0628\u0627\u0644\u0627\u0645\u0637\u0627\u0631 \u0627\u0644\u063a\u0632\u064a\u0631\u0647 \u0627\u0644\u0644\u0647\u0645 \u0627\u063a\u062b\u0646\u0627 \u063a\u064a\u062b\u0627 \u0645\u063a\u064a\u062b\u0627 \u0633\u062d\u0627 \u063a\u062f\u0641\u0627 \u0646\u0627\u0641\u0639\u0627 \u063a\u064a\u0631 \u0636\u0627\u0631 \u0648\u0627\u0633\u0642\u064a \u0628\u0647 \u0627\u0644\u0639\u0628\u0627\u062f \u0648\u0627\u0644\u0628\u0644\u0627\u062f", "created_at": "2013-04-16T17:58:45", "screen_name": "um_mishary_", "coordinates": {"type": "Point", "coordinates": [41.6685436, 27.4925735]}},{"text": "Chorei de rir e vcs", "created_at": "2013-04-16T17:58:46", "screen_name": "meusmulekescone", "coordinates": {"type": "Point", "coordinates": [-38.49121548, -12.97009997]}},{"text": "Tarde de sono. (@ Videok\u00ea Mix) http://t.co/O1GFJUvJuC", "created_at": "2013-04-16T17:58:46", "screen_name": "leonnardof", "coordinates": {"type": "Point", "coordinates": [-60.02160162, -3.13549718]}},{"text": "@milaekasari tugas kita hanya memaafkan, selebihnya urusan dia dengan Tuhan kak.", "created_at": "2013-04-16T17:58:47", "screen_name": "vikaganisha", "coordinates": {"type": "Point", "coordinates": [112.73099, -7.46024]}},{"text": "@elisagodu77 j'y suis aller une fois avec ma m\u00e8re chercher le bulletin de ma s\u0153ur, je me suis pris un coup de pression mdrrrrr", "created_at": "2013-04-16T17:58:47", "screen_name": "dzirii94", "coordinates": {"type": "Point", "coordinates": [2.58858844, 48.80165045]}},{"text": "I'm surprised you haven't ran out of guys to have sex with.", "created_at": "2013-04-16T17:58:48", "screen_name": "heycarooline", "coordinates": {"type": "Point", "coordinates": [-82.6416653, 39.0587716]}},{"text": "@Mari_McSHORTY ugh... I just had that class last block... \ud83d\ude12", "created_at": "2013-04-16T17:58:49", "screen_name": "Jay_Dha_HillBoi", "coordinates": {"type": "Point", "coordinates": [-81.25614228, 32.16590517]}},{"text": "@callmegiggless work &amp; school", "created_at": "2013-04-16T17:58:50", "screen_name": "Wandajean_13", "coordinates": {"type": "Point", "coordinates": [-85.7739876, 43.5542882]}},{"text": "@TheOnlyJearBear well its not for you.", "created_at": "2013-04-16T17:58:52", "screen_name": "ohhDarla", "coordinates": {"type": "Point", "coordinates": [-95.38872193, 29.55567685]}},{"text": "\u041e\u043f\u044f\u0442\u044c \u0433\u043d\u043e\u044f\u0442\u0441\u044f \u0433\u043b\u0430\u0437\u0430 =((", "created_at": "2013-04-16T17:58:53", "screen_name": "KeijiRyuu", "coordinates": {"type": "Point", "coordinates": [37.3615439, 55.8546917]}},{"text": "@Eliee_ @terencedakouri Tu vas te battre avec qui ? Moi j'ai pas ete eleve dans la jungle morray.", "created_at": "2013-04-16T17:58:53", "screen_name": "PalenfoHassan", "coordinates": {"type": "Point", "coordinates": [-3.97913301, 5.35043127]}},{"text": "@jay_williams123 who's that?", "created_at": "2013-04-16T17:58:54", "screen_name": "EveOliver9", "coordinates": {"type": "Point", "coordinates": [-1.49473291, 52.98638172]}},{"text": "Mi primo parece un cochinito durmiendo JAJAJAJAJAJAJAJAJA #GUAPO #loquiero.", "created_at": "2013-04-16T17:58:54", "screen_name": "Claaudiaasmile", "coordinates": {"type": "Point", "coordinates": [-7.3264506, 37.2049035]}},{"text": "RT @ProsperXaba: Its not about how many invoices you have raised, its about how many have been paid. Chase your money #entrepreneurship", "created_at": "2013-04-16T17:58:59", "screen_name": "George_Ruzv", "coordinates": {"type": "Point", "coordinates": [25.53166, -33.95455]}},{"text": "\"@iluvmariah: Thanks so much for all the support! Last episode was really tough for me! I honestly wanted to crawl in a cave &amp;.. i live lady", "created_at": "2013-04-16T17:59:00", "screen_name": "mcteanna", "coordinates": {"type": "Point", "coordinates": [-95.55035037, 29.69258332]}},{"text": "\u043c\u0430\u043c, \u043d\u0443 \u043f\u043e\u0436\u0430\u043b\u0443\u0439\u0441\u0442\u0430 \u0437\u0430\u043a\u0430\u0436\u0438 \u043c\u043d\u0435 \u0431\u043e\u043c\u0431\u0435\u0440.", "created_at": "2013-04-16T17:59:00", "screen_name": "inna_lakhina", "coordinates": {"type": "Point", "coordinates": [34.83028412, 50.91561508]}},{"text": "\"@VanessaTheSats: What you all been up to in the nice weather? X \ud83d\udc83\ud83d\udc83\" College :/", "created_at": "2013-04-16T17:59:01", "screen_name": "LuLuWhitfield", "coordinates": {"type": "Point", "coordinates": [-2.5657666, 53.3994158]}},{"text": "@Arseburgers :-)", "created_at": "2013-04-16T17:59:03", "screen_name": "jodiethetwit", "coordinates": {"type": "Point", "coordinates": [0.5752279, 50.8724557]}},{"text": "Berdakwah tidak terikat hanya pada konsep 'di masjid' sahaja.", "created_at": "2013-04-16T17:59:03", "screen_name": "haziqyusri", "coordinates": {"type": "Point", "coordinates": [101.5133841, 3.0456027]}},{"text": "Muchas Felicidades @raquelddr , pasatelo muy bien prima y disfruta de los 18. Besos :)", "created_at": "2013-04-16T17:59:04", "screen_name": "pablodrsierra9", "coordinates": {"type": "Point", "coordinates": [-6.37578936, 39.4727697]}},{"text": "Itu blsnya singkat sangatt @Wawaaaan_: @FirdhaAnissa Kgk sapa yang marah -_-", "created_at": "2013-04-16T17:59:06", "screen_name": "FirdhaAnissa", "coordinates": {"type": "Point", "coordinates": [107.0095736, -6.2797952]}},{"text": "@bekliyorumiste @ayhostulanamk sn blysn ki .s", "created_at": "2013-04-16T17:59:11", "screen_name": "zeyndebana", "coordinates": {"type": "Point", "coordinates": [27.11669913, 38.40601039]}},{"text": "Andar con la @JenniferCA09 (:", "created_at": "2013-04-16T17:59:11", "screen_name": "AlbbittaNaranjo", "coordinates": {"type": "Point", "coordinates": [-5.2872364, 37.2267811]}},{"text": "@emtomkinson look at what Dom tweeted me (I retweeted it) :(", "created_at": "2013-04-16T17:59:12", "screen_name": "emwalkerr", "coordinates": {"type": "Point", "coordinates": [-2.00983973, 52.7178663]}},{"text": "I'm at Traumzentrale (Erkrath, Nordrhein-Westfalen) http://t.co/G50rYpQl6S", "created_at": "2013-04-16T17:59:13", "screen_name": "Frau_Traeumer", "coordinates": {"type": "Point", "coordinates": [6.97805368, 51.20736752]}},{"text": "\u201c@ltsTyga: That EX that you thought was THE ONE &lt;&lt;&lt;&lt;\u201d", "created_at": "2013-04-16T17:59:14", "screen_name": "tiffanyxmariee", "coordinates": {"type": "Point", "coordinates": [-73.76264024, 42.84768472]}},{"text": "Woo\ud83d\ude13... Even if i didnt mean half the shit i said you get the point... Leave me alone.", "created_at": "2013-04-16T17:59:15", "screen_name": "hecanonlyhldher", "coordinates": {"type": "Point", "coordinates": [-79.52179582, 43.76982722]}},{"text": "Q apesar de los problemas, cicunstancias, obstaculos, celos, peleas, discusiones ETC!... Y todabia estar juntos ! Se\u00f1ores, eso si es amor.", "created_at": "2013-04-16T17:59:15", "screen_name": "diegopabon9595", "coordinates": {"type": "Point", "coordinates": [-72.52543, 7.90755]}},{"text": "@lexa_mele lmao me and @MJ_Mele were like she has no hope until The Godfather makes that final descion...", "created_at": "2013-04-16T17:59:16", "screen_name": "melisshjelm", "coordinates": {"type": "Point", "coordinates": [-74.0564173, 40.7910771]}},{"text": "@femenegat @brunyeckel ba me toquei.... Q chave, mas era dmais, juro", "created_at": "2013-04-16T17:59:19", "screen_name": "nathaliaengelke", "coordinates": {"type": "Point", "coordinates": [-51.14645545, -30.03550599]}},{"text": "Cheikou Kouyate.", "created_at": "2013-04-16T17:59:20", "screen_name": "AxelNuri", "coordinates": {"type": "Point", "coordinates": [-93.10240096, 16.75296434]}},{"text": "\u0648\u0641\u064a \u0639\u064a\u0648\u0646\u064a \u0643\u0627\u0646\u0648\u0627 \u0627\u0644\u0623\u062d\u0628\u0627\u0628 \u0648\u0627\u062c\u062f , \u0648\u0645\u0627\u0628\u0642\u0649 \u0645\u0646 \u0648\u0627\u062c\u062f\u064a \u0627\u0644\u0627 \u0627\u0644\u0642\u0644\u064a\u0644 !", "created_at": "2013-04-16T17:59:21", "screen_name": "mariyamalotaibi", "coordinates": {"type": "Point", "coordinates": [48.12343, 29.08498]}},{"text": "@JoeAndBordelon @supp_sharon @official_flo @bassdoll4you @trance4m3 yeah I never really liked him either... Maybe I liked Low years ago tbh\ud83d\ude05", "created_at": "2013-04-16T17:59:21", "screen_name": "TheRaveGoD", "coordinates": {"type": "Point", "coordinates": [-73.76986662, 41.05690803]}},{"text": "Oh my goshness!", "created_at": "2013-04-16T17:59:21", "screen_name": "Charlie_Vega", "coordinates": {"type": "Point", "coordinates": [-81.44767464, 39.41593576]}},{"text": "Todo estaria solucionado Si Tibisay dijera; SI, acepto tal cual se acord\u00f3 de las 2 parts, Abrir las Urnas! Contar", "created_at": "2013-04-16T17:59:21", "screen_name": "materp81", "coordinates": {"type": "Point", "coordinates": [-67.04336, 10.34506]}},{"text": "@Inaya_Baby Mdr jai \u00e9cout\u00e9 un peux", "created_at": "2013-04-16T17:59:22", "screen_name": "maamclf", "coordinates": {"type": "Point", "coordinates": [2.5451077, 48.8605869]}},{"text": "@MarcelaCriss_ vish eu nem grito menina! K", "created_at": "2013-04-16T17:59:23", "screen_name": "JulGama_", "coordinates": {"type": "Point", "coordinates": [-60.0218696, -3.1330021]}},{"text": "Baybeenaar... @Sbu_Maphs pls add ths track to our weddn playlist.  Leroy- Promise (to love you forever) : N'dinga Gaba Remix", "created_at": "2013-04-16T17:59:25", "screen_name": "Mvulanah", "coordinates": {"type": "Point", "coordinates": [0.0, 0.0]}},{"text": "Yes. Because I was so capable. \nI'm sick of the shit talking.", "created_at": "2013-04-16T17:59:27", "screen_name": "MarissaMims", "coordinates": {"type": "Point", "coordinates": [-82.6351239, 30.14806445]}},{"text": "Vote2...", "created_at": "2013-04-16T17:59:27", "screen_name": "aiman_alwi", "coordinates": {"type": "Point", "coordinates": [101.59595, 3.19537]}},{"text": "\ud83d\ude33\ud83d\ude04\u263a http://t.co/yM4SIan7Kg", "created_at": "2013-04-16T17:59:27", "screen_name": "BermanBerman", "coordinates": {"type": "Point", "coordinates": [39.6605672, 47.26556405]}},{"text": "ile G\u00f6khan (@ LunchBox w/ 25 others) http://t.co/mpCnuubCGD", "created_at": "2013-04-16T17:59:28", "screen_name": "goygoyalp", "coordinates": {"type": "Point", "coordinates": [28.65757942, 41.01008656]}},{"text": "apres on es aller a decathlon on desend a pagnol apres on voit a lautre aret yavai 2 voiture de Leurs heuresement on cs arreter hamdoulillah", "created_at": "2013-04-16T17:59:28", "screen_name": "GarfieldGrosSak", "coordinates": {"type": "Point", "coordinates": [2.4960202, 48.9050222]}},{"text": "I'm not sure why I come to this class. I sit on Pinterest the entire time", "created_at": "2013-04-16T17:59:29", "screen_name": "sbreicharttt", "coordinates": {"type": "Point", "coordinates": [-86.1796578, 39.77617121]}},{"text": "@Yuuyuunn ganti nmerka,malasma hubungi seseorang blah.", "created_at": "2013-04-16T17:59:30", "screen_name": "ridhojuliansya2", "coordinates": {"type": "Point", "coordinates": [119.46136, -5.19489211]}},{"text": "Might just rape this box of mini corn dawgs! \ud83d\ude0e", "created_at": "2013-04-16T17:59:31", "screen_name": "DJ_ReeHee", "coordinates": {"type": "Point", "coordinates": [-81.28929634, 41.71307208]}},{"text": "I see my Ex hoe standing to my Next hoe standing to the bitch that I'm fuckin with right now!", "created_at": "2013-04-16T17:59:32", "screen_name": "GetMoneyCantu", "coordinates": {"type": "Point", "coordinates": [-96.76896826, 32.93364423]}},{"text": "Eres demasiado pasoota.", "created_at": "2013-04-16T17:59:32", "screen_name": "Estefi_FM", "coordinates": {"type": "Point", "coordinates": [-6.82158345, 37.91954]}},{"text": "@homoeticus Tranquila, lo se no te preocupes, animooooo y buena Salud, un abrazo y buenas energias :)", "created_at": "2013-04-16T17:59:33", "screen_name": "Rolyhp", "coordinates": {"type": "Point", "coordinates": [-79.45560294, 43.64602592]}},{"text": "I ain't no bitch", "created_at": "2013-04-16T17:59:34", "screen_name": "apottsie", "coordinates": {"type": "Point", "coordinates": [-81.02437657, 33.99434043]}},{"text": "#FeelsGuud made it out tha hood!  I swear it feels so guud!", "created_at": "2013-04-16T17:59:38", "screen_name": "RhetoricalRobb", "coordinates": {"type": "Point", "coordinates": [-94.71691615, 37.81719117]}},{"text": "\u0644\u0644\u062d\u064a\u0646\u064a \u0623\u0635\u062d\u0649 \u0645\u0628\u0643\u0631 \u0648\u0623\u0631\u0642\u062f \u0645\u0628\u0643\u0631\n\u0648\u0644\u0644\u062d\u064a\u0646\u064a \u0622\u0631\u0648\u062d \u0643\u0644 \u0645\u063a\u0631\u0628 \u0644\u0640\u0623\u0645\u0627\u0643\u0646\u0627\n\n\u0648\u062a\u0630\u0628\u062d\u0646\u064a \u0627\u0644\u0630\u0643\u0631\u064a\u0627\u062a \u0625\u0646 \u062c\u064a\u062a \u0623\u062a\u0630\u0643\u0631\n\u0638\u0644\u0643 \u062d\u0636\u0646 \u0638\u0644\u064a \u0648\u0645\u0627 \u0623\u0633\u062a\u0623\u0630\u0646\u0648\u0627 \u0645\u0646\u0627 http://t.co/nJFjIAhEEY", "created_at": "2013-04-16T17:59:38", "screen_name": "modes222", "coordinates": {"type": "Point", "coordinates": [45.95805447, 28.42043539]}},{"text": "http://t.co/S2Qnh6NQoK", "created_at": "2013-04-16T17:59:39", "screen_name": "hSynAvsarr", "coordinates": {"type": "Point", "coordinates": [30.65274638, 36.90930351]}},{"text": "Bref. :-)", "created_at": "2013-04-16T17:59:40", "screen_name": "Its_Monna", "coordinates": {"type": "Point", "coordinates": [3.09293, 50.6326255]}},{"text": "@francojaimez15 sub\u00ed el celular para sacar fotos Gil, te refugias cagon", "created_at": "2013-04-16T17:59:40", "screen_name": "GermannOrellana", "coordinates": {"type": "Point", "coordinates": [-58.190104, -34.7894937]}},{"text": "\u0627\u0644\u0644\u0647\u0645 \u0635\u0644\u064a \u0648\u0633\u0644\u0645 \u0639\u0644\u0649 \u0646\u0628\u064a\u0646\u0627 \u0645\u062d\u0645\u062f \u0627\u0644\u062d\u0628\u064a\u0628  \u0627\u0644\u0643\u0627\u0645\u0644 \u0641\u064a \u0627\u0644\u062d\u0633\u0628 \u0648\u0627\u0644\u0646\u0633\u0628 \u0648\u0627\u0644\u0631\u0627\u0642\u064a \u0625\u0644\u0649 \u0645\u0639\u0627\u0644\u064a \u0627\u0644\u0631\u062a\u0628 \u0648\u0627\u0644\u0635\u0627\u062f\u0642 \u0627\u0644\u0645\u0635\u062f\u0648\u0642 \u0641\u064a \u0627\u0644\u0639\u062c\u0645 \u0648\u0627\u0644\u0639\u0631\u0628 .", "created_at": "2013-04-16T17:59:41", "screen_name": "FaAlkh", "coordinates": {"type": "Point", "coordinates": [46.840576, 24.7455672]}},{"text": "Vodka? \"@sanjeez002: Henny Is Best Mixed With __________?\"", "created_at": "2013-04-16T17:59:42", "screen_name": "CaptainFmat", "coordinates": {"type": "Point", "coordinates": [4.26656, 8.16947]}},{"text": "\u0e08\u0e23\u0e34\u0e07\u0e46 \u0e19\u0e30 #\u0e23\u0e35\u0e25\u0e48\u0e32", "created_at": "2013-04-16T17:59:47", "screen_name": "mhewmhx", "coordinates": {"type": "Point", "coordinates": [100.91888, 13.09169143]}},{"text": "\u201c@DJthaplanet: The new Facebook app is.. Eh.\u201d Downloading it now.", "created_at": "2013-04-16T17:59:48", "screen_name": "waltcast_katie", "coordinates": {"type": "Point", "coordinates": [-81.52746786, 28.33062991]}},{"text": "A wonderful morning with Andrea. Thanks for making it spectacular. (@ Easy Street) http://t.co/MIXaz8wnuU", "created_at": "2013-04-16T17:59:49", "screen_name": "DomMexiCan", "coordinates": {"type": "Point", "coordinates": [-88.36763926, 42.90576652]}},{"text": "@HaidiDeltaSwagg Ah j'sait pas du tout ! Juste fait pas trop clair sinon sa fera trop de contraste sa va \u00eatre moche", "created_at": "2013-04-16T17:59:53", "screen_name": "CharlotteLopez_", "coordinates": {"type": "Point", "coordinates": [4.93941321, 45.7701446]}},{"text": "It def looks like I'm not wearing pants today... #largetank #oops \ud83d\ude01\ud83d\ude1d", "created_at": "2013-04-16T17:59:53", "screen_name": "MorganSkyYoung", "coordinates": {"type": "Point", "coordinates": [-81.77954477, 32.42766932]}},{"text": "Menina se apaixona pelo professor &gt; professor se apaixona pelo amigo dela &gt; ela se decepciona &gt; sofre &gt; morre &gt; fim", "created_at": "2013-04-16T17:59:54", "screen_name": "erickjohnnym", "coordinates": {"type": "Point", "coordinates": [-45.3825323, -22.8935939]}},{"text": "http://t.co/OyuHV07UUQ", "created_at": "2013-04-16T17:59:54", "screen_name": "lamas_clau", "coordinates": {"type": "Point", "coordinates": [-8.6941883, 43.2115571]}},{"text": "I'm at Dota 2 http://t.co/qpGh28aRnO", "created_at": "2013-04-16T17:59:55", "screen_name": "nikitqakarpov", "coordinates": {"type": "Point", "coordinates": [47.16536612, 56.14188605]}},{"text": "\u270c\u270c\u270c\u270c", "created_at": "2013-04-16T17:59:57", "screen_name": "Enrightbrad", "coordinates": {"type": "Point", "coordinates": [-87.81021979, 42.70263033]}},{"text": "@Nii_Rmo @fouskay270 ya quoi ?", "created_at": "2013-04-16T17:59:58", "screen_name": "lascar93270", "coordinates": {"type": "Point", "coordinates": [2.52334663, 48.94790847]}},{"text": "@TheEFCForum Come on Everton. The season starts here! COYB ETID", "created_at": "2013-04-16T17:59:58", "screen_name": "lincolnblue2", "coordinates": {"type": "Point", "coordinates": [-0.54703002, 53.2240206]}},{"text": "Lhh everybody be thinking I be getting the time wrong But I don't .. It's a time difference", "created_at": "2013-04-16T17:59:59", "screen_name": "lazy_Loove", "coordinates": {"type": "Point", "coordinates": [-116.07482873, 34.14337785]}},{"text": "\" @Jen_Turner11: @kerri_keefe no your coming home! \ud83d\ude1e\" okay mamma just for youuu \ud83d\ude18", "created_at": "2013-04-16T17:59:59", "screen_name": "kerri_keefe", "coordinates": {"type": "Point", "coordinates": [-80.24382453, 26.07764277]}},{"text": "\"@TweetsSepik: Cinta sejati adalah dia yg selalu menempatkan kekasihnya diposisi paling istimewa dihatinya tanpa adanya orang lain.\"", "created_at": "2013-04-16T18:00:00", "screen_name": "natalia171099_", "coordinates": {"type": "Point", "coordinates": [115.15834, -8.6049]}},{"text": "I'm at Ch\u00e2teau de Vizille (Vizille, Rh\u00f4ne-Alpes) http://t.co/QVXGtYWJ0b", "created_at": "2013-04-16T18:00:00", "screen_name": "Dalgante", "coordinates": {"type": "Point", "coordinates": [5.773154, 45.075506]}},{"text": "I'm at House Hugo's http://t.co/F9BP8NL3Xe", "created_at": "2013-04-16T18:00:01", "screen_name": "HuGueToo", "coordinates": {"type": "Point", "coordinates": [-47.40493402, -22.75981179]}},{"text": "\u0e1b\u0e34\u0e14\u0e40\u0e1f\u0e2a \u0e40\u0e27\u0e34\u0e48\u0e19\u0e17\u0e27\u0e34\u0e15 \u0e14\u0e35\u0e21\u0e32\u0e01\u0e01\u0e01\u0e01", "created_at": "2013-04-16T18:00:01", "screen_name": "NoeyNii", "coordinates": {"type": "Point", "coordinates": [99.4233447, 18.3290065]}},{"text": "@pfvrmizinha to simm amore", "created_at": "2013-04-16T18:00:01", "screen_name": "carolinazo_", "coordinates": {"type": "Point", "coordinates": [-49.31514778, -25.63919352]}},{"text": "arhaviden bo\u015f vakitler :-) http://t.co/6wPA9AZKbG", "created_at": "2013-04-16T18:00:01", "screen_name": "MehmetBasocak", "coordinates": {"type": "Point", "coordinates": [41.3151521, 41.3567065]}},{"text": "\"@PJBuckingham: Paul McShane the surprise name on the bench three weeks after he was ruled out for 4 months.\" because he's Super Man", "created_at": "2013-04-16T18:00:03", "screen_name": "tigernelo28", "coordinates": {"type": "Point", "coordinates": [-0.7278116, 52.3977686]}},{"text": "@KEVINnREY Naks!!!", "created_at": "2013-04-16T18:00:04", "screen_name": "meganflyyy", "coordinates": {"type": "Point", "coordinates": [121.12638737, 14.69909312]}},{"text": "Todos esos chichis speaking mierda de mi", "created_at": "2013-04-16T18:00:06", "screen_name": "SantossVanesa", "coordinates": {"type": "Point", "coordinates": [-5.6934498, 43.3107326]}},{"text": "Lbba shoftch @ReshoAlRaessi \u2665\u2665", "created_at": "2013-04-16T18:00:08", "screen_name": "J_Aldossry", "coordinates": {"type": "Point", "coordinates": [51.5366636, 25.2656758]}},{"text": "Oa2 slmt!\"@adebmbng: Gausah, akumah setrong daRT @yusinrlm: Samasama jgn?-_-\"@adebmbng: Terima kasihRT @yusinrlm: (cont) http", "created_at": "2013-04-16T18:00:09", "screen_name": "yusinrlm", "coordinates": {"type": "Point", "coordinates": [107.57326, -6.906705]}},{"text": "Eres tu mi sost\u00e9n en mi necesidad \ud83d\ude4f", "created_at": "2013-04-16T18:00:09", "screen_name": "IvetteLopezA", "coordinates": {"type": "Point", "coordinates": [-80.45180563, -1.04818754]}},{"text": "@EditorMark as I see it the \"cloud\" referral to the system of remote storage as a whole. Google drive and drop box are both \"the cloud.\"", "created_at": "2013-04-16T18:00:09", "screen_name": "Indoctrinated", "coordinates": {"type": "Point", "coordinates": [-118.1103703, 33.7821127]}},{"text": "I'm at Simya Cafe (\u0130zmir) w/ 3 others http://t.co/JHSdLsFXyc", "created_at": "2013-04-16T18:00:11", "screen_name": "kaanucrylmz", "coordinates": {"type": "Point", "coordinates": [27.21224784, 38.45937175]}},{"text": "Sagu hahahaaae RT@tamieoww: Tau sala sa, roti ka babengka #cumaorangambonyangpaham\"", "created_at": "2013-04-16T18:00:12", "screen_name": "wikaadSy", "coordinates": {"type": "Point", "coordinates": [106.75541125, -6.3259]}},{"text": "N4TRQ-2 Near  ,   32\u00b0F http://t.co/N60ybB4Bzm #APRS 10.5b", "created_at": "2013-04-16T18:00:12", "screen_name": "n4trqjedi", "coordinates": {"type": "Point", "coordinates": [-76.20963, 36.843896]}},{"text": "Why can't everything be simple. #whatever", "created_at": "2013-04-16T18:00:17", "screen_name": "haleybear15", "coordinates": {"type": "Point", "coordinates": [-86.69825032, 36.31831835]}},{"text": "It's only 1 \ud83d\ude29", "created_at": "2013-04-16T18:00:18", "screen_name": "megtheriot_", "coordinates": {"type": "Point", "coordinates": [-90.7542038, 29.62910265]}},{"text": "#NoALaGuarimbaDeCapriles , mi pregunta es... DONDE ESTA CAPRILES?? Me imagino que ya debe tener su maletica ya preparada..  COBARDE", "created_at": "2013-04-16T18:00:19", "screen_name": "Yuanelldith", "coordinates": {"type": "Point", "coordinates": [-70.2166506, 8.6333156]}},{"text": "@alexeysokov \u0430 \u044f \u0443\u0436 \u043f\u0435\u0440\u0435\u0436\u0438\u0432\u0430\u0442\u044c \u0437\u0430 \u0442\u0435\u0431\u044f \u043d\u0430\u0447\u0430\u043b\u0430, \u0434\u0443\u043c\u0430\u044e, \u043d\u0435\u0437\u0434\u043e\u0440\u043e\u0432\u0438\u0442\u0441\u044f \u0447\u0442\u043e \u043b\u0438, \u0438\u043b\u0438 \u0430\u043a\u043a\u0430\u0443\u043d\u0442 \u0432\u0437\u043b\u043e\u043c\u0430\u043b\u0438 ))", "created_at": "2013-04-16T18:00:20", "screen_name": "Annette_33", "coordinates": {"type": "Point", "coordinates": [40.4491661, 56.1722741]}},{"text": "im a spoiled brat", "created_at": "2013-04-16T18:00:20", "screen_name": "KUSHandKURLS", "coordinates": {"type": "Point", "coordinates": [-84.1397498, 31.5693386]}},{"text": "#Chc", "created_at": "2013-04-16T18:00:21", "screen_name": "_OrdinaryGuy", "coordinates": {"type": "Point", "coordinates": [-2.0819827, 52.5734557]}},{"text": "@billietrixx Hala! Pues habr\u00eda molado :)", "created_at": "2013-04-16T18:00:22", "screen_name": "murcielagosa", "coordinates": {"type": "Point", "coordinates": [-0.3854199, 39.454216]}},{"text": "@BBCNewsUS #prayforboston prayers to the victims at Boston Marathon. Those who did this are satanic.", "created_at": "2013-04-16T18:00:22", "screen_name": "nirjhar2013", "coordinates": {"type": "Point", "coordinates": [16.37425865, 48.18303867]}},{"text": "Super ovet", "created_at": "2013-04-16T18:00:23", "screen_name": "mallik_pappula", "coordinates": {"type": "Point", "coordinates": [78.869112, 18.4579434]}},{"text": "Great team tonight glad to see Noone back in", "created_at": "2013-04-16T18:00:23", "screen_name": "amaf1", "coordinates": {"type": "Point", "coordinates": [-3.20313001, 51.47329053]}},{"text": "These hoes be acting up", "created_at": "2013-04-16T18:00:27", "screen_name": "Yoyoswagtastic", "coordinates": {"type": "Point", "coordinates": [-122.28785171, 47.80135464]}},{"text": "http://t.co/RriSkskmum", "created_at": "2013-04-16T18:00:27", "screen_name": "Kahlom", "coordinates": {"type": "Point", "coordinates": [-3.7086152, 40.4217718]}},{"text": "Daqui a pouco ed f\u00edsica bem basica", "created_at": "2013-04-16T18:00:29", "screen_name": "EduRaupp", "coordinates": {"type": "Point", "coordinates": [-48.60843982, -27.5740641]}},{"text": "Yah punya temen engga ada yang bener!! Engga ada yang bisa di percaya lagi omongannya (\u0482\u02d8\u0300^\u02d8\u0301)9", "created_at": "2013-04-16T18:00:30", "screen_name": "sulishtya", "coordinates": {"type": "Point", "coordinates": [106.81654, -6.28215]}},{"text": "Nothing like a nice hot shower to wash away negative thoughts \u263a", "created_at": "2013-04-16T18:00:37", "screen_name": "charliepie96", "coordinates": {"type": "Point", "coordinates": [-81.44698807, 41.0429186]}},{"text": "Susmakla bitmez.. Gitmekle de bitmez.. \u00c7ok sevmekle biter..\u201d", "created_at": "2013-04-16T18:00:41", "screen_name": "kaan_freestyler", "coordinates": {"type": "Point", "coordinates": [28.88103482, 40.37891312]}},{"text": "20'00 :$", "created_at": "2013-04-16T18:00:42", "screen_name": "Nurrxx_", "coordinates": {"type": "Point", "coordinates": [4.8167904, 52.3840314]}},{"text": "@iAm_Joycee Aek Homer", "created_at": "2013-04-16T18:00:42", "screen_name": "AyooubCoentrao", "coordinates": {"type": "Point", "coordinates": [2.40457054, 48.89445706]}},{"text": "@katie__wicks @amiejadethomas I can't stop laughing \ud83d\ude02\ud83d\ude02\ud83d\ude02", "created_at": "2013-04-16T18:00:42", "screen_name": "rachyletch", "coordinates": {"type": "Point", "coordinates": [0.59952957, 51.36914249]}},{"text": "@gorkemmadrann @salvaatore16 @akyuzbuse Ahahhahahahhahaha ama olmadiiii buu", "created_at": "2013-04-16T18:00:46", "screen_name": "DilaBahaar", "coordinates": {"type": "Point", "coordinates": [27.05668979, 38.39502298]}},{"text": "Kad\u0131n isim vererek fal bakt\u0131 ve herseyi bildi ya", "created_at": "2013-04-16T18:00:46", "screen_name": "yazamazz", "coordinates": {"type": "Point", "coordinates": [27.1305365, 38.4815195]}},{"text": "I'm at Col\u00e9gio Vis\u00e3o w/ @silvaagabriel @joaop_lisboa @peedrocoutoo http://t.co/9DBe7WJPd5", "created_at": "2013-04-16T18:00:46", "screen_name": "marialuizaal", "coordinates": {"type": "Point", "coordinates": [-47.33423294, -15.55561466]}},{"text": "\u0438\u043d\u043e\u0433\u0434\u0430 \u043c\u043d\u0435 \u0445\u043e\u0447\u0435\u0442\u0441\u044f \u0431\u044b\u0442\u044c \u041b\u0438\u0441\u0431\u0435\u0442 \u0421\u0430\u043b\u0430\u043d\u0434\u0435\u0440", "created_at": "2013-04-16T18:00:49", "screen_name": "valeraholera", "coordinates": {"type": "Point", "coordinates": [-0.78310093, 50.84079256]}},{"text": "All you have to do is, Tweet the following;\nI love @LoveUmbrellas because... (And your answer) with the hashtag #loveumbrellas ends 7.30 x", "created_at": "2013-04-16T18:00:49", "screen_name": "LoveUmbrellas", "coordinates": {"type": "Point", "coordinates": [-2.3000291, 53.69126962]}},{"text": "@GCollizzolli viste lo que es? Muy de gordoooo pero me encanta", "created_at": "2013-04-16T18:00:49", "screen_name": "SantiGaston", "coordinates": {"type": "Point", "coordinates": [-58.38306, -34.80984]}},{"text": "@LinahSongz @jacoblossa on a tous dis \u00e7a au d\u00e9but mais tu verra , \u00e7a ce faire tous seul toi meme tu sera choquer", "created_at": "2013-04-16T18:00:49", "screen_name": "Amy_WeezyWife", "coordinates": {"type": "Point", "coordinates": [2.41294259, 48.85193022]}},{"text": "@YuhanizKamar hahaha...kannn..aku pon xtau apsal jadi cmni.", "created_at": "2013-04-16T18:00:50", "screen_name": "imaanirfan", "coordinates": {"type": "Point", "coordinates": [101.7375649, 2.8280941]}},{"text": "@Carson19XX trust me once you see it, you won't think it was a terrorist attack anymore", "created_at": "2013-04-16T18:00:50", "screen_name": "thaatbitchbecca", "coordinates": {"type": "Point", "coordinates": [-81.35826207, 41.18684572]}},{"text": "\u0627\u0644\u0634\u0644\u0647\u0648\u0628:\n\u0627\u0639\u062a\u0632 \u0648 \u0627\u062a\u0634\u0631\u0641 \u0628\u062d\u0635\u0648\u0644\u064a \u0639\u0644\u0649 \u0627\u0644\u062c\u0627\u0626\u0632\u0629 \u0648 \u0641\u064a \u0646\u0641\u0633 \u0627\u0644\u0648\u0642\u062a \u064a\u062d\u0645\u0644\u0646\u064a \u0645\u0633\u0624\u0648\u0644\u064a\u0629 \u0643\u0628\u064a\u0631\u0629 \u0634\u0643\u0631\u0627 \u0644\u0644\u062c\u0645\u064a\u0639 .", "created_at": "2013-04-16T18:00:50", "screen_name": "AlmahmoudHusam", "coordinates": {"type": "Point", "coordinates": [46.6247746, 24.60635483]}},{"text": "Fuck u, what you're capable of, &amp; who u kin to!", "created_at": "2013-04-16T18:00:52", "screen_name": "__CocaineCowboy", "coordinates": {"type": "Point", "coordinates": [-88.70511749, 32.37860503]}},{"text": "At\u00e9 um infeliz que nem eu fico \"\"\"\"\"atraente\"\"\"\"\" de barba, imagina um cara mais bonito.", "created_at": "2013-04-16T18:00:52", "screen_name": "stewedik", "coordinates": {"type": "Point", "coordinates": [-46.63889906, -23.53869346]}},{"text": "Am I un-American for never having chipotle?", "created_at": "2013-04-16T18:00:53", "screen_name": "Solarith", "coordinates": {"type": "Point", "coordinates": [-98.06589738, 27.76074315]}},{"text": "Anyone awake?  Wanna chat? Can't sleep:(", "created_at": "2013-04-16T18:00:53", "screen_name": "Gaston_Says", "coordinates": {"type": "Point", "coordinates": [103.6999656, 1.3500214]}},{"text": "@Lanataenel13 llam\u00e1 a @rialjorge y se pudre todo! @CFKArgentina va por la expropiaci\u00f3n de #FARI\u00d1A S.A.", "created_at": "2013-04-16T18:00:54", "screen_name": "emimartin89", "coordinates": {"type": "Point", "coordinates": [-58.70537185, -34.52802651]}},{"text": "Annoyed.", "created_at": "2013-04-16T18:00:54", "screen_name": "natassshaaaa", "coordinates": {"type": "Point", "coordinates": [116.048415, 5.9124925]}},{"text": "I'm at Caixa Econ\u00f4mica Federal - Ag\u00eancia CATEDRAL (Macei\u00f3, AL) http://t.co/3morMhUnhT", "created_at": "2013-04-16T18:00:55", "screen_name": "vomitovcs", "coordinates": {"type": "Point", "coordinates": [-35.73662795, -9.66549969]}},{"text": "Nem acredito que ja acabei de ler o livro", "created_at": "2013-04-16T18:00:56", "screen_name": "IsaBenini12", "coordinates": {"type": "Point", "coordinates": [-42.6082829, -19.5231718]}},{"text": "@blAckz_tecKular @cikk_ieda @lalatgaga adik nk bungkus baju jp lepastu nak pindah rumah..zah..bukak pintu ko..aq nk masuk..", "created_at": "2013-04-16T18:00:56", "screen_name": "azwannizam2", "coordinates": {"type": "Point", "coordinates": [101.74865723, 3.1401453]}},{"text": "Dude said when she get a boyfriend she gon call him papi..", "created_at": "2013-04-16T18:00:56", "screen_name": "LilDessyDes", "coordinates": {"type": "Point", "coordinates": [-88.0285909, 43.078746]}},{"text": "Going to be a Wildcat next your . \ud83d\udc9aA", "created_at": "2013-04-16T18:00:57", "screen_name": "MuchDope", "coordinates": {"type": "Point", "coordinates": [-76.62859496, 39.12285175]}},{"text": "@hino_35 \u0644\u0648\u0648 \u0633\u0645\u062d\u062d\u062a\u064a \u0644\u0627 \u0639\u0627\u0627\u062f \u062a\u0631\u0633\u0644\u064a \u0634\u064a\u0621 \u0627\u0641\u0647\u0645\u064a \u0645\u0627\u0628\u064a\u0643\u064a \u062a\u0631\u0633\u0644\u064a \u062f\u0627\u0645\u0643\u0643 \u0645\u0631\u0627\u0627 \u0645\u0633\u0648\u064a\u0647 \u0646\u0641\u0633\u0643\u0643 \u0643\u0628\u064a\u0631\u0647 \u0648\u0641\u0627\u0647\u0645\u0647 \u062e\u0644\u0627\u0635 \u0644\u0627 \u062a\u0631\u0633\u0644\u064a \u0634\u064a\u0621 \u0648\u064a \u0644\u064a\u062a \u062d\u062a\u0649 \u0628\u0627\u0644\u0647\u0634\u062a\u0623\u0642 \u0645\u0627\u062a\u0631\u0633\u0644\u064a", "created_at": "2013-04-16T18:00:58", "screen_name": "just2013dream", "coordinates": {"type": "Point", "coordinates": [40.43971, 21.26216]}},{"text": "Hahaha kalo gt bnyk' muji org aja . Termasuk amal itu RT @Rico_krai: perbanyak ber amal, hehehe RT@cutivera Slain byk makan buah ??", "created_at": "2013-04-16T18:00:58", "screen_name": "cutivera", "coordinates": {"type": "Point", "coordinates": [110.38568025, -7.80256323]}},{"text": "@tanisanverirsin kovulduk mu smdi amk", "created_at": "2013-04-16T18:00:58", "screen_name": "cCcelibon", "coordinates": {"type": "Point", "coordinates": [30.0405544, 40.7410553]}},{"text": "L\n\nLl\nOo", "created_at": "2013-04-16T18:00:59", "screen_name": "MsBeautifulTish", "coordinates": {"type": "Point", "coordinates": [-96.81390947, 32.74198334]}},{"text": "@Aabercrombitch_ Tu ts trompe sur mon agee ?!:-)", "created_at": "2013-04-16T18:00:59", "screen_name": "MiinaPoupeyShou", "coordinates": {"type": "Point", "coordinates": [2.5537424, 48.9081607]}},{"text": "PARO en el pa\u00eds hasta que no se de la realidad!!", "created_at": "2013-04-16T18:01:00", "screen_name": "GGabrielaTorres", "coordinates": {"type": "Point", "coordinates": [-66.9528356, 10.4873367]}},{"text": "\"@ElUniversal: En los \u00faltimos doce meses la inflaci\u00f3n ha registrado un aumento de 25% #Venezuela - http://t.co/XxfauPnvlT\"", "created_at": "2013-04-16T18:01:00", "screen_name": "jdhueck", "coordinates": {"type": "Point", "coordinates": [-66.8247785, 10.4970194]}},{"text": "I'm at \u043c\u043e\u0439\u043a\u0430 \u0434\u0440\u0438\u043c \u0430\u0432\u0442\u043e (\u041c\u043e\u0441\u043a\u0432\u0430) [pic]: http://t.co/ULXHE3YUrz", "created_at": "2013-04-16T18:01:01", "screen_name": "cccp_yo", "coordinates": {"type": "Point", "coordinates": [37.39543923, 55.73665682]}},{"text": "Pasi\u00f3n por el f\u00fatbol, no desenfreno por \u00e9l.", "created_at": "2013-04-16T18:01:02", "screen_name": "DANIMARIAVARGAS", "coordinates": {"type": "Point", "coordinates": [-75.5684034, 6.22181041]}},{"text": "I'm at McDonald's (\u041f\u0435\u0442\u0440\u043e\u0437\u0430\u0432\u043e\u0434\u0441\u043a, \u041a\u0430\u0440\u0435\u043b\u0438\u044f) w/ 2 others http://t.co/eT8Y57t3XF", "created_at": "2013-04-16T18:01:03", "screen_name": "dashadasha91", "coordinates": {"type": "Point", "coordinates": [34.3636924, 61.79081426]}},{"text": "@NOMONEYNOSEXXX komentarisi mi tvit na kom si to primetio ovako tvoj komentar ne uvazavam jer nema smisla!", "created_at": "2013-04-16T18:01:03", "screen_name": "SsandraLady", "coordinates": {"type": "Point", "coordinates": [16.31640364, 48.19091533]}},{"text": "Aun no nos conocemos y ya me empieza a odiar ! \n\n#ternura !", "created_at": "2013-04-16T18:01:03", "screen_name": "vladimoer", "coordinates": {"type": "Point", "coordinates": [-96.71960566, 17.05367932]}},{"text": "Vi un chavon re fachero bien vestido todo y miro el bolso y era un tommy automaticamente dije que puto de mierda", "created_at": "2013-04-16T18:01:05", "screen_name": "FacuCaminoo", "coordinates": {"type": "Point", "coordinates": [-58.4014844, -34.7630381]}},{"text": "Se eu nao ganhar, eu me dou de presente, igual ano passado, nao faz mal u.u", "created_at": "2013-04-16T18:01:06", "screen_name": "Muuuuuka", "coordinates": {"type": "Point", "coordinates": [-49.23064789, -25.50637994]}},{"text": "A correr con @martamanrubia9  #EmpiezaLaOperacionbikini", "created_at": "2013-04-16T18:01:06", "screen_name": "Ana98vp", "coordinates": {"type": "Point", "coordinates": [-0.8795701, 37.6308411]}},{"text": "I'm at Lojas Americanas (Bel\u00e9m, Par\u00e1) http://t.co/JKt2EjpNRJ", "created_at": "2013-04-16T18:01:07", "screen_name": "Samaara_C", "coordinates": {"type": "Point", "coordinates": [-48.48219855, -1.45202777]}},{"text": "\u0646\u0633\u0623\u0644\u0643 \u0627\u0644\u0644\u0647\u0645 \u062e\u064a\u0631 \u062a\u0642\u0644\u0628\u0627\u062a \u0637\u0642\u0633\u0646\u0627 \u0648\u0646\u0633\u062a\u063a\u0641\u0631\u0643 \u0631\u0628\u0646\u0627 \u0627\u0646\u0627 \u0646\u062e\u0634\u0649 \u0639\u0630\u0627\u0628\u0643.", "created_at": "2013-04-16T18:01:10", "screen_name": "munira_18", "coordinates": {"type": "Point", "coordinates": [46.67284378, 24.77760725]}},{"text": "@independent_bi wen u GOIN", "created_at": "2013-04-16T18:01:14", "screen_name": "Bii_Swerve86", "coordinates": {"type": "Point", "coordinates": [-92.09010559, 32.53247123]}},{"text": "\"@La_Kapucha: URGENTE BARINAS: estan reprimiendo terriblemente marcha oposicion al CNE! Hay mujeres y ni\u00f1os!\"", "created_at": "2013-04-16T18:01:16", "screen_name": "MORGAN2403", "coordinates": {"type": "Point", "coordinates": [-68.78565915, 10.31859505]}},{"text": "Down Town! #Panama #PanamaCity. #DownTown @ Puente de Calidonia http://t.co/R866j5fqAF", "created_at": "2013-04-16T18:01:19", "screen_name": "MizzErick", "coordinates": {"type": "Point", "coordinates": [-79.54213658, 8.96299277]}},{"text": "J'ai arrive a Paris!", "created_at": "2013-04-16T18:01:21", "screen_name": "wajeeha_husain", "coordinates": {"type": "Point", "coordinates": [2.57624015, 49.00406646]}},{"text": "@Nastichkaaa_ \u0438 \u044f \u043b\u044e\u0431\u043b\u044e \u0442\u0435\u0431\u044f!", "created_at": "2013-04-16T18:01:21", "screen_name": "liverpool1603", "coordinates": {"type": "Point", "coordinates": [47.8609811, 56.646344]}},{"text": "@ChloePrs si tqt", "created_at": "2013-04-16T18:01:21", "screen_name": "Gwenoush", "coordinates": {"type": "Point", "coordinates": [2.09898082, 48.71674543]}},{"text": "O de\u011fil de yaln\u0131zl\u0131\u011f\u0131 da tad\u0131nda b\u0131raksak iyiydi ..", "created_at": "2013-04-16T18:57:00", "screen_name": "onurkangenis", "coordinates": {"type": "Point", "coordinates": [27.08602607, 38.49632657]}},{"text": "\u200f\u200b\u0633\u064a\u0623\u062e\u064f\u0630 \u0627\u0644\u0644\u0647 \u0628\u062d\u0642\u0643 \u0645\u0646\u0647\u0645 \u061b \u0641\u0642\u0637 \u0625\u0628\u062a\u0633\u0645 \u0648\u0623\u0646\u0633\u0649 ..\u2665!'", "created_at": "2013-04-16T18:57:03", "screen_name": "Yahiaateef", "coordinates": {"type": "Point", "coordinates": [36.485602, 28.483624]}},{"text": "@AquiVENDO mi bb curve 9360 con garantia, como nuevo con sus accesorios, y 3 estuches fashion. 04145453338 estado lara en 5OOObs", "created_at": "2013-04-16T18:57:05", "screen_name": "421Roxxy", "coordinates": {"type": "Point", "coordinates": [-69.3135, 10.07198]}},{"text": "Kita boleh saja kehilangan segala yang kita miliki, namun kita tidak boleh kehilangan Harapan.", "created_at": "2013-04-16T18:57:05", "screen_name": "Nevtriady", "coordinates": {"type": "Point", "coordinates": [107.17953829, -6.27527571]}},{"text": "Vamos a mantenernos tranquilos con paz y en nuestras casas. As\u00ed lo orden\u00f3 el l\u00edder Henrique Capriles", "created_at": "2013-04-16T18:57:07", "screen_name": "JulyPerdomoT23", "coordinates": {"type": "Point", "coordinates": [-67.4641345, 10.1868231]}},{"text": "@Shablagooo Are you going to sixth?", "created_at": "2013-04-16T18:57:07", "screen_name": "lirpa_0", "coordinates": {"type": "Point", "coordinates": [-118.190286, 33.9886563]}},{"text": "Why can't my life just be simple and normal? \ud83d\ude10\ud83d\ude24", "created_at": "2013-04-16T18:57:08", "screen_name": "elliemarie5683", "coordinates": {"type": "Point", "coordinates": [-76.68797077, 39.92121262]}},{"text": "Voil\u00e0 ce qu'il a fait mon couz on roulait avec sa sur panam dimanche soir. @rohff #DT sponsor par @DistinctParis LoL http://t.co/8oA0GE0Q07", "created_at": "2013-04-16T18:57:08", "screen_name": "FaissoilEmpire", "coordinates": {"type": "Point", "coordinates": [2.56919, 48.90265]}},{"text": "Nike socks with my boots. Hate on it!\ud83d\ude0f", "created_at": "2013-04-16T18:57:15", "screen_name": "ruggrat7", "coordinates": {"type": "Point", "coordinates": [-116.98071838, 33.96346102]}},{"text": "Prova de Legisla\u00e7ao do trabalho :@ (@ Coord. de Hospitalidade e Lazer) http://t.co/Q2vjkIQkh4", "created_at": "2013-04-16T18:57:15", "screen_name": "filipelisboadj", "coordinates": {"type": "Point", "coordinates": [-48.46075075, -1.43842641]}},{"text": "@rhyssmt_ iv been well...same ish really! How come i aint seen u with cherish lately?! Or i aint seen u round full stop...lol", "created_at": "2013-04-16T18:57:15", "screen_name": "emanphotoz", "coordinates": {"type": "Point", "coordinates": [174.90573295, -36.97939899]}},{"text": "@marieeduarda_ isso n\u00e3o vai mudar seu amor rs -q", "created_at": "2013-04-16T18:57:17", "screen_name": "shoowdown", "coordinates": {"type": "Point", "coordinates": [-49.3539331, -25.4130701]}},{"text": "\u0e2d\u0e22\u0e32\u0e01\u0e01\u0e34\u0e19\u0e15\u0e4a\u0e2d\u0e01\u0e42\u0e1a\u0e01\u0e34 \u0e01\u0e34\u0e21\u0e08\u0e34\u0e0a\u0e35\u0e41\u0e08 \u0e04\u0e34\u0e21\u0e1a\u0e31\u0e1a!!55555555555555  \u0e42\u0e04\u0e23\u0e15\u0e40\u0e01\u0e32\u0e2b\u0e25\u0e35\u0e40\u0e25\u0e22\u0e01\u0e39 ! - -", "created_at": "2013-04-16T18:57:19", "screen_name": "ffewfew", "coordinates": {"type": "Point", "coordinates": [100.43524, 13.71228125]}},{"text": "@BeLikeMike94 Florian???", "created_at": "2013-04-16T18:57:19", "screen_name": "Sarabball54", "coordinates": {"type": "Point", "coordinates": [6.20467, 48.68564]}},{"text": "Daydreaming about standing paddle boarding on a lazy summer day &amp;somebody giving me all the cute puppies to play with in the beach #greyday", "created_at": "2013-04-16T18:57:19", "screen_name": "koreyannderbell", "coordinates": {"type": "Point", "coordinates": [-87.39162491, 46.57864433]}},{"text": "A veces os pas\u00e1is.", "created_at": "2013-04-16T18:57:21", "screen_name": "MrsCongui", "coordinates": {"type": "Point", "coordinates": [-4.43415889, 36.72240694]}},{"text": "Or I'm in the mood to eat", "created_at": "2013-04-16T18:57:22", "screen_name": "Dracoandy", "coordinates": {"type": "Point", "coordinates": [-118.00352069, 33.90770163]}},{"text": "@angelaa_redavid I've been good hbu homie?", "created_at": "2013-04-16T18:57:22", "screen_name": "russellyaboyy", "coordinates": {"type": "Point", "coordinates": [-74.247823, 40.4054647]}},{"text": "@Fra_La_Mia_Paz mmmmh chi? mumble mumble ;)", "created_at": "2013-04-16T18:57:23", "screen_name": "LauraCarignani1", "coordinates": {"type": "Point", "coordinates": [7.7245804, 45.072505]}},{"text": "I need a reality check.", "created_at": "2013-04-16T18:57:23", "screen_name": "_Msfit_", "coordinates": {"type": "Point", "coordinates": [-75.0609448, 42.4662072]}},{"text": "Aqu\u00ed llegamos! (@ Aeropuerto Gustavo Artunduaga Paredes) [pic]: http://t.co/woiOnrv8Yi", "created_at": "2013-04-16T18:57:24", "screen_name": "El_JulianMartin", "coordinates": {"type": "Point", "coordinates": [-75.56546688, 1.59032425]}},{"text": "@anfoknee ya lol every one else gets out at 12:30", "created_at": "2013-04-16T18:57:25", "screen_name": "riceebowl", "coordinates": {"type": "Point", "coordinates": [-118.1908259, 34.6851747]}},{"text": "Estoy viendo el final del Galata-Madrid x si hac\u00edan referencia al M\u00e1laga y no hablan! Se nota q lo estaban viendo x otra pantalla", "created_at": "2013-04-16T18:57:27", "screen_name": "AlejandroMO79", "coordinates": {"type": "Point", "coordinates": [-4.44925183, 36.68293445]}},{"text": "I'm at P\u00e3o De Queijo Mineiro w/ @gabrielsigolif http://t.co/RtAJDUMOYd", "created_at": "2013-04-16T18:57:28", "screen_name": "CFacioli", "coordinates": {"type": "Point", "coordinates": [-47.89084165, -22.01052663]}},{"text": "@the_farfan dude I'm sorry....", "created_at": "2013-04-16T18:57:29", "screen_name": "tylerpezell", "coordinates": {"type": "Point", "coordinates": [-97.12163114, 31.54832555]}},{"text": "When I go to skul and come back she's not d Same", "created_at": "2013-04-16T18:57:29", "screen_name": "tide_onilenla", "coordinates": {"type": "Point", "coordinates": [3.15332348, 6.66920093]}},{"text": "Pinche tecnico estupido", "created_at": "2013-04-16T18:57:30", "screen_name": "luis_jmnz", "coordinates": {"type": "Point", "coordinates": [-107.38033606, 24.81192541]}},{"text": "No bowl games for Oregon for 2 years ? So finally people will hop off their bandwagon now", "created_at": "2013-04-16T18:57:30", "screen_name": "Camm_and_cheese", "coordinates": {"type": "Point", "coordinates": [-81.54436909, 28.36088549]}},{"text": "Tidur nyenyak! http://t.co/1aGV5QTwmR", "created_at": "2013-04-16T18:57:31", "screen_name": "antok_hood", "coordinates": {"type": "Point", "coordinates": [110.361128, -7.796596]}},{"text": "@Winona_Dht hahaha olalaaa \u00e7a rigole plus Winona :D", "created_at": "2013-04-16T18:57:31", "screen_name": "ilaydaozkan1", "coordinates": {"type": "Point", "coordinates": [4.3784796, 50.8606356]}},{"text": "La indecisi\u00f3n forma parte del ser humano", "created_at": "2013-04-16T18:57:32", "screen_name": "SuperNando01", "coordinates": {"type": "Point", "coordinates": [-70.10342, 18.41366]}},{"text": "@__WestSidee thank you", "created_at": "2013-04-16T18:57:32", "screen_name": "TheRealNique_", "coordinates": {"type": "Point", "coordinates": [-75.25783779, 39.96206221]}},{"text": "Why do all the companies we go through appear to be run by retards?! Fuck you! Do your job!", "created_at": "2013-04-16T18:57:32", "screen_name": "julieparker_", "coordinates": {"type": "Point", "coordinates": [-119.2822188, 46.29937399]}},{"text": "@xJohnTan pouah.. Je les plaint deja mdr", "created_at": "2013-04-16T18:57:34", "screen_name": "Sophanie_", "coordinates": {"type": "Point", "coordinates": [3.1651037, 50.6912918]}},{"text": "@jorgedazamusic y otros en twitter !!!! Jajajaja ;)", "created_at": "2013-04-16T18:57:36", "screen_name": "alexandrablan8", "coordinates": {"type": "Point", "coordinates": [-3.4897009, 37.1801133]}},{"text": "I'm making my lunch break extra long toi", "created_at": "2013-04-16T18:57:40", "screen_name": "violentnapkins", "coordinates": {"type": "Point", "coordinates": [-87.8612853, 42.3701897]}},{"text": "@bananaman0408 it's so good \ud83d\ude2d", "created_at": "2013-04-16T18:57:42", "screen_name": "jshsnchz", "coordinates": {"type": "Point", "coordinates": [-73.03117339, 41.24229886]}},{"text": "Yucky travel day coming into Utica, NY. #comeonspring #vitaminD #checkpointgold @ Nicky Doodles http://t.co/fZaOiHddzX", "created_at": "2013-04-16T18:57:43", "screen_name": "megsmchugh", "coordinates": {"type": "Point", "coordinates": [-75.61110735, 43.10192291]}},{"text": "@ClamChowder_XMC @Wali_Fa Lol &amp; If It Was :)", "created_at": "2013-04-16T18:57:44", "screen_name": "SmokeeMeImDopee", "coordinates": {"type": "Point", "coordinates": [-84.30114577, 33.5476091]}},{"text": "@nalyaaa esok cite hihi", "created_at": "2013-04-16T18:57:44", "screen_name": "aireenzaffrey", "coordinates": {"type": "Point", "coordinates": [101.6799396, 2.9884005]}},{"text": "So happy to have you back in my life :) :) :)", "created_at": "2013-04-16T18:57:44", "screen_name": "Lindie324", "coordinates": {"type": "Point", "coordinates": [22.13621375, -34.12500581]}},{"text": "@NeshanTV \u062e\u0627\u0635: \u0647\u0644 \u0623\u0648\u0642\u0641 \u0628\u0631\u0646\u0627\u0645\u062c \u0646\u064a\u0634\u0627\u0646 \u0642\u0628\u0644 \u0623\u0646 \u064a\u0628\u062f\u0623\u061f  http://t.co/yXAbpTN47r.\u2026 via \u0645\u0639\u0642\u0648\u0644 \u0647\u0627\u0644\u0643\u0644\u0627\u0645", "created_at": "2013-04-16T18:57:49", "screen_name": "jannitjennateHW", "coordinates": {"type": "Point", "coordinates": [-7.6335538, 33.5775756]}},{"text": "\u0627\u0641\u062a\u0642\u062f \u0627\u062d\u062d\u062f\u0647\u0645 \u062d\u062f \u0627\u0644\u0648\u062d\u0634\u0634\u0647 .", "created_at": "2013-04-16T18:57:52", "screen_name": "skooryz", "coordinates": {"type": "Point", "coordinates": [39.2778777, 21.466168]}},{"text": "@KMcAllister4 we really should!!!", "created_at": "2013-04-16T18:57:52", "screen_name": "Lcwesner", "coordinates": {"type": "Point", "coordinates": [-83.05574765, 40.11478888]}},{"text": "@elisacenedese Mmm 'buon samaritano' ti dice nulla? Ahahaha", "created_at": "2013-04-16T18:57:53", "screen_name": "DeDeby53", "coordinates": {"type": "Point", "coordinates": [12.218056, 45.83319474]}},{"text": "What ima send Luis tomorrow &lt;3333", "created_at": "2013-04-16T18:57:56", "screen_name": "Diana_121712", "coordinates": {"type": "Point", "coordinates": [-81.6711328, 28.8528144]}},{"text": "No Hay Relog Que De Vuelta Asia Atras ;)", "created_at": "2013-04-16T18:57:57", "screen_name": "_RaMselFresS", "coordinates": {"type": "Point", "coordinates": [-69.99946, 18.44436]}},{"text": "Sfeer op Elland Road Leeds! #HTCAmsterdam http://t.co/wrvg79b9lI", "created_at": "2013-04-16T18:57:57", "screen_name": "CyrielR", "coordinates": {"type": "Point", "coordinates": [3.618459, 51.499015]}},{"text": "@DoctorChristian hmmmmmmm! Never really thought about it that way. I do know that if u walk into a Dr office and the plants are dead.RUN Lol", "created_at": "2013-04-16T18:57:59", "screen_name": "1967Pamela", "coordinates": {"type": "Point", "coordinates": [-86.49967577, 30.39409879]}},{"text": "I honestly can't seem to get Ramses off my mind lately. #RIP", "created_at": "2013-04-16T18:58:01", "screen_name": "_IvonneLovee", "coordinates": {"type": "Point", "coordinates": [-97.85127643, 30.53808497]}},{"text": "@ruddy_PR &amp; esa tipaaaa jajajajajajajjajajaajajajajajjaa", "created_at": "2013-04-16T18:58:02", "screen_name": "RaaulAndres", "coordinates": {"type": "Point", "coordinates": [-65.99930446, 18.42985915]}},{"text": "I'm making my lunch break extra long too", "created_at": "2013-04-16T18:58:02", "screen_name": "violentnapkins", "coordinates": {"type": "Point", "coordinates": [-87.8612454, 42.3701815]}},{"text": "Who wants to do something with me today?", "created_at": "2013-04-16T18:58:03", "screen_name": "Destiny_Bruno", "coordinates": {"type": "Point", "coordinates": [-87.9483936, 42.9871517]}},{"text": "@ZOO I submitted them week ago don't know if it send? X", "created_at": "2013-04-16T18:58:03", "screen_name": "olivia_oxton", "coordinates": {"type": "Point", "coordinates": [-0.35602184, 53.77333935]}},{"text": "@anumalll lmaoooooooo \"SOMEONE NEEDS TO THROW HER OUT\" hahahahahahahaha", "created_at": "2013-04-16T18:58:04", "screen_name": "MariumAli786", "coordinates": {"type": "Point", "coordinates": [-121.42521705, 38.45318532]}},{"text": "@MariaColate pues yo no, que no tengo dinero u,u", "created_at": "2013-04-16T18:58:06", "screen_name": "dani_ayala96", "coordinates": {"type": "Point", "coordinates": [-3.63301441, 40.46387862]}},{"text": "Cheguei agora em casa. Vou estudar, bjs.", "created_at": "2013-04-16T18:58:06", "screen_name": "SophiaGermoglio", "coordinates": {"type": "Point", "coordinates": [-34.8383056, -7.0920383]}},{"text": "Where was Ronnie though\ud83d\ude10", "created_at": "2013-04-16T18:58:09", "screen_name": "YasLDN", "coordinates": {"type": "Point", "coordinates": [-0.06067249, 51.41216146]}},{"text": "Mon frere vien de me donner les vrai bar chui tt heureux comsa", "created_at": "2013-04-16T18:58:10", "screen_name": "kanazoeabdoul", "coordinates": {"type": "Point", "coordinates": [-1.5629681, 12.3361953]}},{"text": "Me vine caminando desde la U, muy bien! :) (@ Casa de Maca) http://t.co/pxQrtntF0F", "created_at": "2013-04-16T18:58:10", "screen_name": "macaenHD", "coordinates": {"type": "Point", "coordinates": [-73.03462441, -36.81694]}},{"text": "@gardenroar oh hey thanks :p", "created_at": "2013-04-16T18:58:13", "screen_name": "Whoatisashley", "coordinates": {"type": "Point", "coordinates": [-122.10732574, 37.64166726]}},{"text": "Laperrrrrrr.....", "created_at": "2013-04-16T18:58:14", "screen_name": "Afriani_Juntak", "coordinates": {"type": "Point", "coordinates": [106.7371362, -6.2120926]}},{"text": "\u0e0b\u0e37\u0e49\u0e2d\u0e02\u0e2d\u0e07\u0e1d\u0e32\u0e01\u0e25\u0e30 http://t.co/KyNKkKP4SV", "created_at": "2013-04-16T18:58:14", "screen_name": "belleunhyuk", "coordinates": {"type": "Point", "coordinates": [2.3317981, 48.83357678]}},{"text": "I'm at Academia Espa\u00e7o Ativo (Porto Alegre, RS) http://t.co/ycsEl3QuW7", "created_at": "2013-04-16T18:58:15", "screen_name": "angela_rubin", "coordinates": {"type": "Point", "coordinates": [-51.20189594, -30.03888113]}},{"text": "@ChloAlves mdr c'est pour que vous reveiller de bonne hummeur :p", "created_at": "2013-04-16T18:58:15", "screen_name": "Elpadre_Meta", "coordinates": {"type": "Point", "coordinates": [3.12795306, 50.72885768]}},{"text": "@rinogargano @laccio Si ma dopo upas....", "created_at": "2013-04-16T18:58:15", "screen_name": "pasqualepalment", "coordinates": {"type": "Point", "coordinates": [14.22250996, 40.85334532]}},{"text": "Hemos vivido muchas cosas juntos eh, y te quiero como el primer dia.", "created_at": "2013-04-16T18:58:16", "screen_name": "OnnlyBelieeve", "coordinates": {"type": "Point", "coordinates": [-3.67991733, 40.19953178]}},{"text": "You knew it would end, you knew this would die", "created_at": "2013-04-16T18:58:16", "screen_name": "AllissaBailey", "coordinates": {"type": "Point", "coordinates": [-82.9625389, 42.4876479]}},{"text": "@ThalytaSthphne gra\u00e7as a Deus, bem tranquilo.", "created_at": "2013-04-16T18:58:16", "screen_name": "Williambritoh", "coordinates": {"type": "Point", "coordinates": [-59.9658533, -3.0323612]}},{"text": "@seanberry18 oi oi oi what's this all about man?", "created_at": "2013-04-16T18:58:16", "screen_name": "Ak_Wharton", "coordinates": {"type": "Point", "coordinates": [-1.42909943, 50.92883712]}},{"text": "Ler \"phelps\" e lembrar do Sobre a Mesa do Porta dos Fundos.....", "created_at": "2013-04-16T18:58:17", "screen_name": "isacarolina__", "coordinates": {"type": "Point", "coordinates": [-44.30961147, -2.55654167]}},{"text": "@TDeHerrera KAY", "created_at": "2013-04-16T18:58:20", "screen_name": "LaynaCates", "coordinates": {"type": "Point", "coordinates": [-97.61294629, 38.8245191]}},{"text": "@splunder20s nil nil at St Mirren", "created_at": "2013-04-16T18:58:23", "screen_name": "frasersbrown", "coordinates": {"type": "Point", "coordinates": [-4.44108139, 55.86901056]}},{"text": "No one understands how badly I want to nap", "created_at": "2013-04-16T18:58:24", "screen_name": "RaychullDM", "coordinates": {"type": "Point", "coordinates": [-77.67738177, 43.08507895]}},{"text": "@ZinedineR9 Je me demande si cest pas elle trop de ressemblance ptn :o", "created_at": "2013-04-16T18:58:28", "screen_name": "BadLiars_", "coordinates": {"type": "Point", "coordinates": [3.1521796, 50.6937328]}},{"text": "Bitch unfollow then lol ..", "created_at": "2013-04-16T18:58:31", "screen_name": "DA_rEal_DeVeosi", "coordinates": {"type": "Point", "coordinates": [-86.46000032, 36.98154753]}},{"text": "Who wants to get food", "created_at": "2013-04-16T18:58:32", "screen_name": "justSeanSouth", "coordinates": {"type": "Point", "coordinates": [-76.46008662, 37.15230093]}},{"text": "@KlarenMelissa @DaphnedeLangex @irisdelangex  jupp achter de vrouwtjes aaan ;)", "created_at": "2013-04-16T18:58:32", "screen_name": "wendydelangex", "coordinates": {"type": "Point", "coordinates": [6.5778119, 52.4247165]}},{"text": "@mzon20010 \u0647\u0647\u0647\u0647\u0647\u0647\u0647\u0647\u0647\u0647 \ud83d\ude02", "created_at": "2013-04-16T18:58:32", "screen_name": "NOrh_122", "coordinates": {"type": "Point", "coordinates": [41.68067608, 27.51742842]}},{"text": "@LaurenSanders02 no one even understands it at all \ud83d\udc81", "created_at": "2013-04-16T18:58:32", "screen_name": "jessicasokoloff", "coordinates": {"type": "Point", "coordinates": [-83.46365859, 34.14290469]}},{"text": "@Jeff_ready01 @readytwin2 @bear1474 @lunch with lemon? Looks nice, I had a beer in the states that came with lemon but I can't remember what", "created_at": "2013-04-16T18:58:33", "screen_name": "Kris_Smith_01", "coordinates": {"type": "Point", "coordinates": [0.19067161, 51.52011707]}},{"text": "@marthapiper_ Martha it looks gorgeous", "created_at": "2013-04-16T18:58:33", "screen_name": "SARAHHELENWALSH", "coordinates": {"type": "Point", "coordinates": [1.18252929, 52.06985747]}},{"text": "Yo creo que voy a venir todos los dias ala isla jaja #mamamia", "created_at": "2013-04-16T18:58:34", "screen_name": "Shere_kvitta", "coordinates": {"type": "Point", "coordinates": [-6.0849072, 40.0227887]}},{"text": "Entendo tudo.. @ Instituto Oi Futuro http://t.co/KwKuxfShnH", "created_at": "2013-04-16T18:58:35", "screen_name": "BeRoses", "coordinates": {"type": "Point", "coordinates": [-43.17671454, -22.93003512]}},{"text": "acordei de mau humor,vdd", "created_at": "2013-04-16T18:58:41", "screen_name": "anakarown", "coordinates": {"type": "Point", "coordinates": [-49.14534719, -26.86726393]}},{"text": "@SmithBrittneeee Wow! Thanks for letting me know you've been blessed with a job! Happy for you girrrr", "created_at": "2013-04-16T18:58:42", "screen_name": "Dear_Sunshine", "coordinates": {"type": "Point", "coordinates": [-86.25089105, 41.72352962]}},{"text": "Shit, tram 9 maakt complete wereldreis door omlegging bij Amstelstraat. Niet blij....", "created_at": "2013-04-16T18:58:42", "screen_name": "Amsterdam1012", "coordinates": {"type": "Point", "coordinates": [4.9136881, 52.36349863]}},{"text": "@Kevinprv  naaa,ma\u00f1ana te cuento la ultima...JAJAJA", "created_at": "2013-04-16T18:58:47", "screen_name": "Nieves260612", "coordinates": {"type": "Point", "coordinates": [-6.1067279, 43.4797232]}},{"text": "asdfghjkl no puedo dejar d mirar sus fotoos! Verano viene YA", "created_at": "2013-04-16T18:58:47", "screen_name": "ana_martinsrp", "coordinates": {"type": "Point", "coordinates": [-3.78622, 40.44492]}},{"text": "@Ziallisreall Pero de este mes?", "created_at": "2013-04-16T18:58:49", "screen_name": "_WendyMoreno", "coordinates": {"type": "Point", "coordinates": [-100.28221976, 25.68863526]}},{"text": "Evde olmak kadar g\u00fczel bisey yok ya la", "created_at": "2013-04-16T18:58:50", "screen_name": "caylak077", "coordinates": {"type": "Point", "coordinates": [32.1129953, 36.4790201]}},{"text": "@AVILESHAZE Amazing! :) By the way, I'm gonna sleep, because its 3:00 am, here.", "created_at": "2013-04-16T18:58:50", "screen_name": "itsmeKrisNLM", "coordinates": {"type": "Point", "coordinates": [120.978522, 14.7783829]}},{"text": "@ernestomiguel1 @AlvaroUribeVel NO! No es ser selectivo!Es Ser consecuente Uribe jam\u00e1s aprob\u00f3 a Chavez el de ahora lo ataco para MejorAmigo!", "created_at": "2013-04-16T18:58:50", "screen_name": "radridj", "coordinates": {"type": "Point", "coordinates": [-74.05017, 4.72085]}},{"text": "@hateenjoyment @elvaselina @markgall88 it's been, in the past.", "created_at": "2013-04-16T18:58:51", "screen_name": "mochan67", "coordinates": {"type": "Point", "coordinates": [-4.1525202, 55.77626891]}},{"text": "E hj as horas estao me castigandoo.", "created_at": "2013-04-16T18:58:51", "screen_name": "vanessa_neussa", "coordinates": {"type": "Point", "coordinates": [-50.8739643, -29.3796961]}},{"text": "Me aburrooooooooooooooo!", "created_at": "2013-04-16T18:58:53", "screen_name": "MalesoloSRD1019", "coordinates": {"type": "Point", "coordinates": [-3.62495, 40.54569]}},{"text": "Burbulha :/", "created_at": "2013-04-16T18:58:56", "screen_name": "SolangeNiikolly", "coordinates": {"type": "Point", "coordinates": [32.5423381, -25.8429881]}},{"text": "Interview time #fingerscrossed!", "created_at": "2013-04-16T18:58:57", "screen_name": "kelsarg", "coordinates": {"type": "Point", "coordinates": [-79.79406595, 43.2346721]}},{"text": "@GTeventing @gemmajjewellery and clothes I presume??or is it one of them kind of parties #afterwatershed", "created_at": "2013-04-16T18:58:58", "screen_name": "mclach388", "coordinates": {"type": "Point", "coordinates": [-3.04284965, 52.88195248]}},{"text": "No existir.!", "created_at": "2013-04-16T18:58:59", "screen_name": "wen20d", "coordinates": {"type": "Point", "coordinates": [-88.59397, 15.7188]}},{"text": "@alba_3rp :0 jajaja perdona pero eres tu la de 2*3=5 jajajaja", "created_at": "2013-04-16T18:59:00", "screen_name": "sonia_w17", "coordinates": {"type": "Point", "coordinates": [-1.54204747, 39.21118827]}},{"text": "Si la alcaldia de @anibalgaviria no mando a retirar vallas de @PachoSantosC \u00bfentonces quien fue? \u00bfUnn pajarito? #NoImpunidad.", "created_at": "2013-04-16T18:59:00", "screen_name": "juanctorresgome", "coordinates": {"type": "Point", "coordinates": [-75.6036235, 6.2709801]}},{"text": "#WelcomeToMySchoolWhere You will see every single possible phenotype combination of gingers imaginable. #TexasTech", "created_at": "2013-04-16T18:59:02", "screen_name": "BryanCazalas", "coordinates": {"type": "Point", "coordinates": [-101.88731549, 33.56500054]}},{"text": "@PekeBiita mejor dicho me he pispado jajaj \u2660", "created_at": "2013-04-16T18:59:04", "screen_name": "ricardocoviella", "coordinates": {"type": "Point", "coordinates": [-5.8617573, 43.3635167]}},{"text": "\u0410 \u0432\u043e\u0442 \u0438 \u043a\u0443\u0431\u043e\u043a \u0437\u0430 \u0441\u0442\u044d\u043c @ Kudinov Residence http://t.co/itZdJ9pg7C", "created_at": "2013-04-16T18:59:04", "screen_name": "kudinov_d", "coordinates": {"type": "Point", "coordinates": [49.3164467, 53.52831204]}},{"text": "@RitaSahiti it doesnt deserve my time :p", "created_at": "2013-04-16T18:59:06", "screen_name": "JonaPrelvukaj", "coordinates": {"type": "Point", "coordinates": [20.32659622, 42.68586581]}},{"text": "@gl0ry_hole long time no speak", "created_at": "2013-04-16T18:59:06", "screen_name": "lilyisabellaaa", "coordinates": {"type": "Point", "coordinates": [-1.49687822, 52.39345894]}},{"text": "Y dejar el otro n\u00famero con whatsapp.. total ese casi nadie lo tiene s\u00f3lo los mas cercanos xd", "created_at": "2013-04-16T18:59:08", "screen_name": "_NicolCaroline", "coordinates": {"type": "Point", "coordinates": [-71.5942638, -33.55045491]}},{"text": "@jmarismendi jajajajajja cuando invite el @sebaayalaa", "created_at": "2013-04-16T18:59:08", "screen_name": "Karla_Melo_", "coordinates": {"type": "Point", "coordinates": [-70.65900749, -33.4329669]}},{"text": "\u044f \u043d\u0435 \u0445\u043e\u0442\u0435\u043b\u0430 \u0442\u0435\u0431\u044f \u0432\u0438\u0434\u0435\u0442\u044c, \u043d\u043e \u0442\u0430\u043a \u0432\u0441\u0435\u0433\u0434\u0430 \u043f\u043e\u043b\u0443\u0447\u0430\u0435\u0442\u0441\u044f \u0436\u0435 \u0438 \u0442\u044b \u043a\u0440\u0430\u0441\u0438\u0432\u044b\u0439", "created_at": "2013-04-16T18:59:08", "screen_name": "lachowskiJulia", "coordinates": {"type": "Point", "coordinates": [37.15917014, 55.9745945]}},{"text": "\u062a\u0648\u0639\u062f\u0646\u064a \u0645\u064e \u062a\u0628\u0639\u062f\u061f \u0648\u0646\u0628\u0642\u0649 \u0633\u0648\u0627 \u0639\u0644\u0649 \u0646\u0641\u0633 \u0627\u0644\u0645\u0635\u064a\u0631\u061f \u0648\u0622\u0648\u0639\u062f\u0646\u064a \u0628\u064a \u062a\u062d\u0633 \u0648\u0645\u064e \u062a\u0647\u0645\u0644 \u0648\u0622\u0648\u0639\u062f\u0646\u064a \u0627\u0646\u06af \u0639\u0644\u0649 \u0648\u0639\u062f\u06af \u062a\u0648\u0641\u064a \u0648\u0645\u0627 \u062a\u062e\u0644\u0641\u2661\u2661", "created_at": "2013-04-16T18:59:09", "screen_name": "l6ameii", "coordinates": {"type": "Point", "coordinates": [55.66761, 24.22438]}},{"text": "So u Vibe to That bullshit \"My Nigga\"", "created_at": "2013-04-16T18:59:10", "screen_name": "jakeelc", "coordinates": {"type": "Point", "coordinates": [-80.1516619, 26.6895995]}},{"text": "Come on young gunners... Semangattt:-):-):-)", "created_at": "2013-04-16T18:59:10", "screen_name": "drik_adacihara", "coordinates": {"type": "Point", "coordinates": [107.0452725, -6.4569763]}},{"text": "@AnRayyen ajiboy kata xda class....", "created_at": "2013-04-16T18:59:12", "screen_name": "syafieq34", "coordinates": {"type": "Point", "coordinates": [103.08474, 3.08149]}},{"text": "@Leyoush_Hrtless Non peace j'arr\u00eate j'arr\u00eate mdr", "created_at": "2013-04-16T18:59:13", "screen_name": "WLeguier", "coordinates": {"type": "Point", "coordinates": [2.31456988, 48.61023209]}},{"text": "\"@anacaonax: Dios, qu\u00edtame este acento rolo tan culo. Estoy oyendo una conversaci\u00f3n de j\u00f3venes bogotanos y me quiero pegar un tiro.\" jajaja", "created_at": "2013-04-16T18:59:13", "screen_name": "sharymejia", "coordinates": {"type": "Point", "coordinates": [-73.2426403, 10.4235966]}},{"text": "Jaaizcapo uz veikalu un tad jamacas!!", "created_at": "2013-04-16T18:59:13", "screen_name": "E_Jermacenko", "coordinates": {"type": "Point", "coordinates": [21.01578782, 56.48631477]}},{"text": "HOME TIME !!!!!", "created_at": "2013-04-16T18:59:14", "screen_name": "Jay360X", "coordinates": {"type": "Point", "coordinates": [-79.1904109, 43.76305196]}},{"text": "Eres tan para mi... Esta la drdicaria", "created_at": "2013-04-16T18:59:16", "screen_name": "Franco_Vasquez", "coordinates": {"type": "Point", "coordinates": [-70.570643, -33.40882845]}},{"text": "I feel bad for girls that gotta draw on their eye brows or touch them up with pencils.", "created_at": "2013-04-16T18:59:17", "screen_name": "TiffanyAsherYDG", "coordinates": {"type": "Point", "coordinates": [-83.24183545, 42.2146653]}},{"text": "Accidente vehicular sobre: Obreros\nDel Carmen\n55000 Ecatepec de Morelos, MEX\nGenera severos asentam... #traficodf http://t.co/5VasWmlUXb", "created_at": "2013-04-16T18:59:18", "screen_name": "Urban360_DF", "coordinates": {"type": "Point", "coordinates": [-99.0534268, 19.6107656]}},{"text": "#cahuzac Son interview est troublante : un devoilement de l ame, une mise a nue volontaire malgre l image ou plutot pour  l image ! ;-)", "created_at": "2013-04-16T18:59:18", "screen_name": "brandinmotion", "coordinates": {"type": "Point", "coordinates": [2.3263134, 48.8264153]}},{"text": "- Instaqram ; \u00bb FvckAlqex3 &lt;3", "created_at": "2013-04-16T18:59:18", "screen_name": "TatzSwaqqx3", "coordinates": {"type": "Point", "coordinates": [-69.8452351, 18.4933403]}},{"text": "I juss be chillin http://t.co/XvdlTDGc5b", "created_at": "2013-04-16T18:59:18", "screen_name": "ZayDOZIER", "coordinates": {"type": "Point", "coordinates": [-79.77822471, 36.07348052]}},{"text": "@millonariosfc a comer bandeja paisa esta noche vamos MILLOS con toda http://t.co/ZkKuzzNqhl", "created_at": "2013-04-16T18:59:20", "screen_name": "jeyflow_", "coordinates": {"type": "Point", "coordinates": [-74.037, 4.69493]}},{"text": "\u0423 \u043d\u0430\u0441 \u0442\u0443\u0442 \u0443\u0436\u0435 15 \u043c\u0438\u043d\u0443\u0442 \u0442\u0438\u0448\u0438\u043d\u0430  - \u043d\u0435\u0443\u0436\u0435\u043b\u0438 @kviti_W_volossi \u0432\u0437\u044f\u043b\u0430\u0441\u044c \u0437\u0430 \u0440\u0435\u0444\u0435\u0440\u0430\u0442?", "created_at": "2013-04-16T18:59:21", "screen_name": "unbound_acid", "coordinates": {"type": "Point", "coordinates": [37.59693055, 55.68926266]}},{"text": "Ooi de novo. Falta pouquinho agora :D", "created_at": "2013-04-16T18:59:22", "screen_name": "adryenetompson", "coordinates": {"type": "Point", "coordinates": [-43.2600295, -22.8917844]}},{"text": "@SamTreves Funny tho", "created_at": "2013-04-16T18:59:23", "screen_name": "mattex_smillan", "coordinates": {"type": "Point", "coordinates": [0.52664972, 51.35721504]}},{"text": "Closed Graffiti report at Tremont St http://t.co/IkPSlwE36d. Case resolved. graffitti removed.", "created_at": "2013-04-16T18:59:24", "screen_name": "citizensconnect", "coordinates": {"type": "Point", "coordinates": [-71.10199736, 42.33326727]}},{"text": "\u0413\u0440\u0435\u0431\u0430\u043d\u043d\u044b\u0439 \u0414\u0443\u0440\u043e\u0432 \u0441\u043e \u0441\u0432\u043e\u0438\u043c\u0438 \u0437\u0430\u043c\u043e\u0440\u043e\u0437\u043a\u0430\u043c\u0438!\u043a\u0430\u043a \u044f \u0442\u0435\u043f\u0435\u0440\u044c\u0434\u043e\u043b\u0436\u0435\u043d \u0440\u0430\u0437\u0431\u043b\u043e\u043a\u0438\u0440\u043e\u0432\u0430\u0442\u044c \u0441\u0442\u0440\u0430\u043d\u0438\u0446\u0443,\u0435\u0441\u043b\u0438 \u0443 \u043c\u0435\u043d\u044f \u0434\u0430\u0432\u043d\u043e \u043d\u0435\u0442 \u043d\u043e\u043c\u0435\u0440\u0430,\u043a \u043a\u043e\u0442\u043e\u0440\u043e\u043c\u0443 \u043f\u0440\u0438\u0432\u044f\u0437\u0430\u043d\u0430 \u0441\u0442\u0440\u0430\u043d\u0438\u0446\u0430?", "created_at": "2013-04-16T18:59:24", "screen_name": "Danzer_Hip_Hop", "coordinates": {"type": "Point", "coordinates": [65.56696372, 57.13294312]}},{"text": "Que si chico me parece genial que pienses eso de mi.", "created_at": "2013-04-16T18:59:25", "screen_name": "argii12", "coordinates": {"type": "Point", "coordinates": [-2.9331, 43.25275]}},{"text": "@ContiniLc @BillyWak bugs bunny m'a eteind", "created_at": "2013-04-16T18:59:26", "screen_name": "JMongayard", "coordinates": {"type": "Point", "coordinates": [2.2020085, 48.8696208]}},{"text": "catching up on made in Chelsea and I do not like the new girls! They act so bloody snobby! grrrrr", "created_at": "2013-04-16T18:59:33", "screen_name": "kaffiexoxo", "coordinates": {"type": "Point", "coordinates": [-1.21922879, 51.75251392]}},{"text": "@viplavshukla dude.. imagine the awkward moment when one of your friend is named Gardik Mahadik...", "created_at": "2013-04-16T18:59:33", "screen_name": "hornbit", "coordinates": {"type": "Point", "coordinates": [79.0516205, 21.1229184]}},{"text": "Last night \u2728 w/ palomamguedes @ Drag\u00e3o Fashion Brasil 2013 http://t.co/IrvDcv3snP", "created_at": "2013-04-16T18:59:34", "screen_name": "mirella_teles2", "coordinates": {"type": "Point", "coordinates": [-38.51982694, -3.72111071]}},{"text": "@_chxmel Hahaa hahaa . Mesti laa . Legend tao , mane boleyy ingatt .", "created_at": "2013-04-16T18:59:36", "screen_name": "nrsyfyqhsam", "coordinates": {"type": "Point", "coordinates": [103.9587465, 1.3562127]}},{"text": "@_iwillseethem belli tutti e due ma preferisco il primo grazie millee", "created_at": "2013-04-16T18:59:37", "screen_name": "chiaretta_oned", "coordinates": {"type": "Point", "coordinates": [12.4211789, 41.92542616]}},{"text": "Estava contabilizando e percebi que desde o carnaval, n\u00e3o coloco uma gota de \u00e1lcool no sangue. Pr\u00f3ximo passo:\nRealizar 3 milagres.\n#PqN\u00e9", "created_at": "2013-04-16T18:59:37", "screen_name": "luluzinhamarica", "coordinates": {"type": "Point", "coordinates": [-42.75427526, -22.95702384]}},{"text": "Je sent que le roux i va enkor me faire rever avec sa maniere detre hahaa", "created_at": "2013-04-16T18:59:40", "screen_name": "FerreiraDiego5", "coordinates": {"type": "Point", "coordinates": [2.57108478, 48.81317485]}},{"text": "I don\u2019t ask for much, loyalty is good enough.", "created_at": "2013-04-16T18:59:42", "screen_name": "danisimonette", "coordinates": {"type": "Point", "coordinates": [-87.18009, 14.10736]}},{"text": "@sepnangel nek po leh :p", "created_at": "2013-04-16T18:59:43", "screen_name": "Syahrulmutaqin", "coordinates": {"type": "Point", "coordinates": [112.79637264, -7.32963033]}},{"text": "#rt seguimi ebti seguo. Aggiungi questo tweet ai preferiti e dico un dm per avere pi\u00f9 follower\u2665\u2665\u2665\u2665\u2665 ;)). Cresciamo x87", "created_at": "2013-04-16T18:59:45", "screen_name": "antonellina_dec", "coordinates": {"type": "Point", "coordinates": [9.1597128, 45.1991024]}},{"text": "I don't think you have say I'm who we go to prom with and what we do. #fuckoff", "created_at": "2013-04-16T18:59:45", "screen_name": "Kim_Hollinger", "coordinates": {"type": "Point", "coordinates": [-94.93949019, 38.81706217]}},{"text": "Tenerlo aqui para ti y que ni estes interesado en ellooooooooooo", "created_at": "2013-04-16T18:59:47", "screen_name": "MiriRios_22", "coordinates": {"type": "Point", "coordinates": [-3.17787034, 40.72578523]}},{"text": "http://t.co/rfbDQSqg8C   ##maison #Dou\u00e9lafontaine : vente maison maine et loire doue la fontaine: 225000 eur http://t.co/qjC2m2NABY", "created_at": "2013-04-16T18:59:48", "screen_name": "Angers_ville", "coordinates": {"type": "Point", "coordinates": [-0.52900391, 47.47446425]}},{"text": "as a bad guy @kevinwordz101: Yimu 4 ur mind,lol\"@sir_bugzee: Good student @kevinwordz101: Lol...Taken,oii put me thru\"@sir_bugzee: change is", "created_at": "2013-04-16T18:59:48", "screen_name": "sir_bugzee", "coordinates": {"type": "Point", "coordinates": [7.41870975, 10.53577518]}},{"text": "Explaining grits to Japanese girls was too funny and now they think of grits as creamy white oatmeal. Close enough!  my job here is done", "created_at": "2013-04-16T18:59:52", "screen_name": "wilsonbz93", "coordinates": {"type": "Point", "coordinates": [-118.5247315, 34.2496673]}},{"text": "@khalidnurhafiz takpayah faham pun takpe :')", "created_at": "2013-04-16T18:59:53", "screen_name": "KuMazeanaHazwaa", "coordinates": {"type": "Point", "coordinates": [101.6588421, 3.0660251]}},{"text": "All that's on my mind is Summer Summer Summer Summer! #50Days \ud83d\udc59\u2600\ud83d\udc9a", "created_at": "2013-04-16T18:59:54", "screen_name": "condon_ellen", "coordinates": {"type": "Point", "coordinates": [-8.2334717, 52.15852674]}},{"text": "Estoy mas tranquilo ahora q Fari\u00f1a aclaro todo, por un momento pens\u00e9 que que hab\u00eda negocios turbios en el poder", "created_at": "2013-04-16T18:59:54", "screen_name": "juandafon", "coordinates": {"type": "Point", "coordinates": [12.50131406, 41.90350505]}},{"text": "Meanwhile arsenal host everton . Promising to be a feisty game this one", "created_at": "2013-04-16T18:59:56", "screen_name": "terrificmike", "coordinates": {"type": "Point", "coordinates": [36.8937756, -1.2075693]}},{"text": "@_Lotx jawel :) xx", "created_at": "2013-04-16T18:59:57", "screen_name": "COOLSTORYBROx_", "coordinates": {"type": "Point", "coordinates": [4.69894856, 52.52087288]}},{"text": "\u05f1\u200f \u2661 - \n\n\u0622\u062e\u0637\u0627\u0624\u0646\u0627 \u0627\u0644\u0635\u063a\u064a\u0631\u0629 \u062c\u0632\u0621 \u0645\u0646 \u0625\u0646\u0633\u0627\u0646\u064a\u067a\u0646\u0627 \u0648 \u0625\u0644\u067a\u0632\u0622\u0645 \u0627\u0644\u0628\u0639\u0636 \u0628\u0645\u0638\u06be\u0631 \u0627\u0644\u0645\u062b\u0627\u0644\u064a\u06c1\u064e \u0639\u0644\u0649 \u0627\u0644\u062f\u0648\u0627\u0645 \u0644\u064a\u0633 \u0625\u0644\u0627 \u067a\u0645\u062b\u064a\u0644 \u0645\u064f\u067a\u0642\u0646 \u0641\u0627\u0644\u0643\u0645\u0627\u0644 \u0644\u064a\u0633 \u0645\u0646 \u0637\u0628\u064a\u0639\u06c1 \u0627\u0644\u0628\u0634\u0631 !", "created_at": "2013-04-16T18:59:58", "screen_name": "25DD4081", "coordinates": {"type": "Point", "coordinates": [46.63342925, 24.50767]}},{"text": "GRANDMA WHERE R U IM STRANDED AT A FUCKING HOTEL IN SANTA ANA THIS IS BS http://t.co/W56H1ehDZW", "created_at": "2013-04-16T18:59:58", "screen_name": "bellagodshall", "coordinates": {"type": "Point", "coordinates": [-117.85425757, 33.71088308]}},{"text": "Elle est trop belle !!! #LBESP2", "created_at": "2013-04-16T18:59:59", "screen_name": "ClocloZoc", "coordinates": {"type": "Point", "coordinates": [2.1735023, 48.9807817]}},{"text": "I have just received a fantastic Jesus Christ poster", "created_at": "2013-04-16T19:00:02", "screen_name": "bigsalolio", "coordinates": {"type": "Point", "coordinates": [18.25, 43.85]}},{"text": "@TarletonLib @Carlymichele93 @TSMRI I do love my @TarletonLib!", "created_at": "2013-04-16T19:00:02", "screen_name": "MackyBradley", "coordinates": {"type": "Point", "coordinates": [-97.89961617, 30.30618582]}},{"text": "@NycoLILLIU Je t'aime et tu me manques aussi.. \u00c9norm\u00e9ment m\u00eame! Attention on pourrai te prendre aux mots et faire un d\u00eener g\u00e9ant! :P \u2764", "created_at": "2013-04-16T19:00:03", "screen_name": "_Cecilia1102", "coordinates": {"type": "Point", "coordinates": [4.07232008, 48.33921913]}},{"text": "Ross always looks like pebbles flinstone when i tie his hair up.", "created_at": "2013-04-16T19:00:04", "screen_name": "jjlilstar", "coordinates": {"type": "Point", "coordinates": [-3.8016607, 55.9976552]}},{"text": "Nn Bramso la c'est bon j'ai pt un c\u00e2ble !", "created_at": "2013-04-16T19:00:05", "screen_name": "MeelBaarbiie", "coordinates": {"type": "Point", "coordinates": [2.38706204, 48.97648047]}},{"text": "Wind 3.1 mph W. Barometer 1014.4 mb, Rising. Temperature 14.0 \u00b0C. Rain today 0.00 in. Humidity 53%", "created_at": "2013-04-16T19:00:06", "screen_name": "andycambsuk", "coordinates": {"type": "Point", "coordinates": [0.24555556, 52.6]}},{"text": "C'est moi ou Marine de la premiere saison etait 100 fois plus belle que la \"belle\" de cette saison ? #labelleetsesprinces", "created_at": "2013-04-16T19:00:06", "screen_name": "CindC10", "coordinates": {"type": "Point", "coordinates": [2.60437, 48.8813007]}},{"text": "I need to finish this paper.......I really don't feel like it.....", "created_at": "2013-04-16T19:00:07", "screen_name": "dman_fulton", "coordinates": {"type": "Point", "coordinates": [-80.4842563, 35.6667164]}},{"text": "@Jreall_23 so like i tried waking you up &amp; you didnt hear your phone so you get to sleep in (;", "created_at": "2013-04-16T19:00:09", "screen_name": "ayyoojewels", "coordinates": {"type": "Point", "coordinates": [-97.4880269, 27.804076]}},{"text": "@paxicontalba a fin de mes.o.las primeras semanas de mayo se viene con todoo atenra", "created_at": "2013-04-16T19:00:13", "screen_name": "ConiKr", "coordinates": {"type": "Point", "coordinates": [-70.60337949, -32.83417148]}},{"text": "smh", "created_at": "2013-04-16T19:00:14", "screen_name": "virginswag", "coordinates": {"type": "Point", "coordinates": [-95.4288421, 29.8230283]}},{"text": "Llegar a casa y autom\u00e1ticamente empezar a comer los pedazos de torta que me dio @Jesus095  deliciosoooo :3", "created_at": "2013-04-16T19:00:14", "screen_name": "KarlaMaytee", "coordinates": {"type": "Point", "coordinates": [-79.8941852, -2.1310093]}},{"text": "@AlexRenchen Awesome!", "created_at": "2013-04-16T19:00:14", "screen_name": "bbnationnut", "coordinates": {"type": "Point", "coordinates": [-87.8698494, 41.1484315]}},{"text": "Wind 6.0 mph SW. Barometer 30.08 in, Steady. Temperature 85.1 \u00b0F. Rain today 0.00 in. Humidity 26%", "created_at": "2013-04-16T19:00:15", "screen_name": "jimmyzshack", "coordinates": {"type": "Point", "coordinates": [-90.69972222, 29.57611111]}},{"text": "I just want to go home and relax #busybusybusy", "created_at": "2013-04-16T19:00:16", "screen_name": "stephyshaffs", "coordinates": {"type": "Point", "coordinates": [-76.51483652, 41.98174829]}},{"text": "#DanKanterTo1Million @dankanter", "created_at": "2013-04-16T19:00:16", "screen_name": "romasgoncarov", "coordinates": {"type": "Point", "coordinates": [-1.6478571, 52.79693497]}},{"text": "Morgen weer loon denk ik?", "created_at": "2013-04-16T19:00:18", "screen_name": "fransnevels", "coordinates": {"type": "Point", "coordinates": [6.3682024, 52.6410279]}},{"text": "No one ever gets tired of loving. But everyone gets tired of waiting, assuming, hearing lies, saying sorry &amp; hurting :)", "created_at": "2013-04-16T19:00:19", "screen_name": "audreyxvii", "coordinates": {"type": "Point", "coordinates": [113.54116272, 22.20745566]}},{"text": "Playing with fire gets u burnt \ud83d\ude08\ud83d\udd25", "created_at": "2013-04-16T19:00:20", "screen_name": "1ToriJ", "coordinates": {"type": "Point", "coordinates": [-1.08974959, 52.6826082]}},{"text": "\"If parents tell you they don't wanna vaccinate their children, punch them in the face!\"- my anatomy teacher", "created_at": "2013-04-16T19:00:22", "screen_name": "beanenenen", "coordinates": {"type": "Point", "coordinates": [-89.67376501, 42.28255187]}},{"text": "@NadzPawss Chup kar dangar :D", "created_at": "2013-04-16T19:00:22", "screen_name": "Sam_93_Icecube", "coordinates": {"type": "Point", "coordinates": [-2.4463261, 53.5685384]}},{"text": "\u041c\u0440\u0440\u0440\u0440 \u043d\u044f\u0448\u0438 \u043d\u044f\u0448\u0438, \u0432\u0441\u0435 \u0436\u0435 \u0432 \u043c\u0443\u0436\u0447\u0438\u043d\u0435 \u0433\u043b\u0430\u0432\u043d\u043e\u0435 \u0443\u043c \u0438 \u0447\u0443\u0432\u0441\u0442\u0432\u043e \u044e\u043c\u043e\u0440\u0430, \u0431\u0435\u0437\u0443\u0441\u043b\u043e\u0432\u043d\u043e http://t.co/0d4gPKVG38", "created_at": "2013-04-16T19:00:22", "screen_name": "_Kotenok_Gav_", "coordinates": {"type": "Point", "coordinates": [60.6167472, 56.8155664]}},{"text": "Temp: 12.7\u00b0C, Wind:0.0mph, Pressure: 1017.17hpa Rising, Rain Today 0.0mm.  Forecast: Settled fine", "created_at": "2013-04-16T19:00:23", "screen_name": "cspweather", "coordinates": {"type": "Point", "coordinates": [-0.56444444, 51.59861111]}},{"text": "@AriahMackenzie you're welcome", "created_at": "2013-04-16T19:00:24", "screen_name": "2Rekkless", "coordinates": {"type": "Point", "coordinates": [-93.25987905, 44.86481868]}},{"text": "@DeekayOnTheRoad thanks for following.", "created_at": "2013-04-16T19:00:26", "screen_name": "latricehaymond", "coordinates": {"type": "Point", "coordinates": [-95.99058934, 41.12749092]}},