[{"text": "Looking for a place near broadbeach for me and my puppy $200.00 Carrara http://t.co/SZH0iH7WIc", "created_at": "2013-04-12T18:40:02", "screen_name": "forsalegc", "coordinates": {"type": "Point", "coordinates": [153.2817, -28.024]}},{"text": "#vintage #floralprint #shortdress #90s @ Grey Era Vintage http://t.co/FSiPdgphhS", "created_at": "2013-04-12T18:40:02", "screen_name": "GreyEraVintage", "coordinates": {"type": "Point", "coordinates": [-73.9831996, 40.72748642]}},{"text": "Lili, Miley y Oliver :))", "created_at": "2013-04-12T18:40:03", "screen_name": "Marialexandra99", "coordinates": {"type": "Point", "coordinates": [-66.9401612, 10.5044677]}},{"text": "@ecko1601 Je vais devenir polygame alors lol", "created_at": "2013-04-12T18:40:03", "screen_name": "SashaDollz", "coordinates": {"type": "Point", "coordinates": [2.29732795, 48.83352103]}},{"text": "@Lovly_Esmeralda we broke up now for good", "created_at": "2013-04-12T18:40:04", "screen_name": "africanboyswag", "coordinates": {"type": "Point", "coordinates": [-89.3607974, 40.15667081]}},{"text": "I hate it when people ask me how many glasses I want for a bottle of wine, I sound like an alcoholic like erm just one..", "created_at": "2013-04-12T18:40:05", "screen_name": "Emily_Taylor013", "coordinates": {"type": "Point", "coordinates": [-1.2552433, 53.1068962]}},{"text": "@KelseyMndz bwahaha!! labas bulbol sa kilikili!! XD ampopo!! grabi! bawal na hiraman ngayon? :)", "created_at": "2013-04-12T18:40:06", "screen_name": "kitLe89", "coordinates": {"type": "Point", "coordinates": [118.74599454, 9.73915963]}},{"text": "@woodybcfc oh god I know", "created_at": "2013-04-12T18:40:07", "screen_name": "Macca_sotv", "coordinates": {"type": "Point", "coordinates": [-2.14004674, 52.44559864]}},{"text": "@gmisslili Moi \u00e7a fait longtemps que c'est pizza tous les vendredi soir ! Ahah #TeamPizza #TeamGrosSac", "created_at": "2013-04-12T18:40:07", "screen_name": "Sagot_Guillaume", "coordinates": {"type": "Point", "coordinates": [6.38592464, 48.17596366]}},{"text": "@MissKai_ YESSS!! 100%?", "created_at": "2013-04-12T18:40:09", "screen_name": "letsfindh0pe", "coordinates": {"type": "Point", "coordinates": [-1.8339438, 51.5518949]}},{"text": "@BBentte riiiiight haha hebben wij dadelijk een big summer bikini proof booty", "created_at": "2013-04-12T18:40:13", "screen_name": "dangerblondee", "coordinates": {"type": "Point", "coordinates": [6.0092218, 50.9030406]}},{"text": "maman d\u00e9p\u00eache toi putain", "created_at": "2013-04-12T18:40:16", "screen_name": "AntoniaGonez", "coordinates": {"type": "Point", "coordinates": [9.42407632, 42.66001212]}},{"text": "@BradleyOfficiel Oueei Merciii Bradloss", "created_at": "2013-04-12T18:40:17", "screen_name": "KmzBylka", "coordinates": {"type": "Point", "coordinates": [2.41397973, 48.80962138]}},{"text": "No se que\nMierda poner xD", "created_at": "2013-04-12T18:40:17", "screen_name": "kmilo_araya", "coordinates": {"type": "Point", "coordinates": [-71.50299491, -33.01121107]}},{"text": "I think my math teachers' lowkey hot \ud83d\ude0d", "created_at": "2013-04-12T18:40:18", "screen_name": "OfficialCarrie_", "coordinates": {"type": "Point", "coordinates": [-116.92160735, 32.76040496]}},{"text": "I'm at Korupark (Bursa, T\u00fcrkiye) w/ 69 others http://t.co/Ki5RXncV2U", "created_at": "2013-04-12T18:40:20", "screen_name": "ElinaStnimirova", "coordinates": {"type": "Point", "coordinates": [28.95929575, 40.24982389]}},{"text": "@Jchawes @RealAliceCooper  I thought you were just getting into the music and typed a chorus... Lol", "created_at": "2013-04-12T18:40:20", "screen_name": "karimerritt01", "coordinates": {"type": "Point", "coordinates": [-106.5245139, 35.1244343]}},{"text": "I'm at Fud (Catania) http://t.co/VEoU6umr6m", "created_at": "2013-04-12T18:40:23", "screen_name": "_FrancescoGreco", "coordinates": {"type": "Point", "coordinates": [15.08632454, 37.51043268]}},{"text": "@Laa_gaarcia vale amor &amp; el tuyo cual es asi si encuentro un plan  te llamo *w*", "created_at": "2013-04-12T18:40:24", "screen_name": "veneno_soy", "coordinates": {"type": "Point", "coordinates": [-90.53317, 14.6163825]}},{"text": "@FannyHiote viens chz moi avec du poundou stp", "created_at": "2013-04-12T18:40:24", "screen_name": "HaissaLova", "coordinates": {"type": "Point", "coordinates": [2.39736025, 48.87545872]}},{"text": "I find it cringey when disney channel/nickelodian stars get famous through it and then they release songs, like big time rush, just sh p l s", "created_at": "2013-04-12T18:40:25", "screen_name": "ChloeGuinivanxo", "coordinates": {"type": "Point", "coordinates": [-1.78509, 52.47316]}},{"text": "@globovision malandra que dios te perdone nosotros defenderemos nuesteos votos", "created_at": "2013-04-12T18:40:26", "screen_name": "cbitondo", "coordinates": {"type": "Point", "coordinates": [-69.7410407, 9.05009108]}},{"text": "Fried-Day", "created_at": "2013-04-12T18:40:27", "screen_name": "shakeSpear89", "coordinates": {"type": "Point", "coordinates": [-117.71081094, 33.63295023]}},{"text": "Words can not even describe how much I look up to Arnold Schwarzenneger  \n#legend", "created_at": "2013-04-12T18:40:27", "screen_name": "Trae_Tha_Truth7", "coordinates": {"type": "Point", "coordinates": [-87.62701545, 41.87489831]}},{"text": "@lobosquee @insoniana j\u00e1 podem parar n\u00e9!", "created_at": "2013-04-12T18:40:29", "screen_name": "gabspanda", "coordinates": {"type": "Point", "coordinates": [-48.9720614, -16.3438557]}},{"text": "Iros a la caca.", "created_at": "2013-04-12T18:40:34", "screen_name": "Neereeiitaa_99", "coordinates": {"type": "Point", "coordinates": [-3.6152478, 40.8590204]}},{"text": "\uc544 \uc2e0\ub839\uc740 \uc8fc2\ud68c\uc5f0\uc7ac\ub358\uac00?", "created_at": "2013-04-12T18:40:35", "screen_name": "nanana978", "coordinates": {"type": "Point", "coordinates": [129.0340034, 35.1677419]}},{"text": "@ShannonGriffins I'm going in the shower phone when you're done", "created_at": "2013-04-12T18:40:35", "screen_name": "megatronYO", "coordinates": {"type": "Point", "coordinates": [-4.20352763, 57.46284467]}},{"text": "@dan_theonlyone o meu tbm fica assim vez ou outra...", "created_at": "2013-04-12T18:40:36", "screen_name": "b_tutty", "coordinates": {"type": "Point", "coordinates": [-41.3310609, -21.7647162]}},{"text": "Sleezebag Carl #corrie", "created_at": "2013-04-12T18:40:37", "screen_name": "LUSEA_", "coordinates": {"type": "Point", "coordinates": [-3.88042487, 51.66610488]}},{"text": "J'go g\u00e9-man #BBL", "created_at": "2013-04-12T18:40:38", "screen_name": "Maureen_Brllt", "coordinates": {"type": "Point", "coordinates": [2.60502, 49.30181]}},{"text": "@C_Tag \ud83d\ude10\ud83d\ude11\ud83d\ude15\ud83d\ude07\ud83d\ude08\ud83d\ude07\ud83d\ude08\ud83d\ude07\ud83d\ude08\ud83d\ude07", "created_at": "2013-04-12T18:40:38", "screen_name": "Stefrenzy00", "coordinates": {"type": "Point", "coordinates": [-97.22175051, 27.59973249]}},{"text": "I'm addicted to takis", "created_at": "2013-04-12T18:40:39", "screen_name": "awilkinsz_xx", "coordinates": {"type": "Point", "coordinates": [-94.9625489, 32.9911994]}},{"text": "I'm at \u0421\u043a\u0432\u0435\u0440 \u0431\u0456\u043b\u044f \u043c. \u041c\u0456\u043d\u0441\u044c\u043a\u0430 (\u041a\u0438\u0457\u0432, \u043c. \u041a\u0438\u0457\u0432) http://t.co/kcXwlwRwNK", "created_at": "2013-04-12T18:40:39", "screen_name": "A1Zk", "coordinates": {"type": "Point", "coordinates": [30.50093839, 50.51165292]}},{"text": "Just found a two dollar bill question do I spend it???? http://t.co/ZCUaX1O0Uu", "created_at": "2013-04-12T18:40:40", "screen_name": "keeganmccoy", "coordinates": {"type": "Point", "coordinates": [-75.34012169, 40.03566378]}},{"text": "CyberCoders #Sales #Job: Media Account Executive ( #Dover , DE) http://t.co/bldOpCwUCw #cybercoders #Jobs #TweetMyJobs", "created_at": "2013-04-12T18:40:41", "screen_name": "tmj_DED_sales", "coordinates": {"type": "Point", "coordinates": [-75.5243682, 39.158168]}},{"text": "@danielsahyounie you have no idea what 5/5 would mean to me", "created_at": "2013-04-12T18:40:41", "screen_name": "LaugherBreakers", "coordinates": {"type": "Point", "coordinates": [-1.7231364, 53.83706662]}},{"text": "@_MaryJQ weekend... Maybe friday?", "created_at": "2013-04-12T18:40:43", "screen_name": "lillyliciouz", "coordinates": {"type": "Point", "coordinates": [-117.09616741, 32.70198725]}},{"text": "@CentralRebel tbbbbbbb ne olha o q aconteceu nem vou conseguir dar meu cochilo da tarde pensando nisso", "created_at": "2013-04-12T18:40:44", "screen_name": "yourvoicechay", "coordinates": {"type": "Point", "coordinates": [-35.9829085, -8.2919973]}},{"text": "@hottieslut123 vale jeje :D", "created_at": "2013-04-12T18:40:46", "screen_name": "erick_atrevido", "coordinates": {"type": "Point", "coordinates": [-99.25617981, 18.94980005]}},{"text": "Minha gengiva esta inchada ))): que merda!!", "created_at": "2013-04-12T18:40:46", "screen_name": "pqjanaw", "coordinates": {"type": "Point", "coordinates": [-49.0980075, -26.4798845]}},{"text": "@El__Pardo @ElPinzaDeMadera @MartaSanchezGH  po si", "created_at": "2013-04-12T18:40:46", "screen_name": "nuriacaparros1", "coordinates": {"type": "Point", "coordinates": [2.8083311, 41.6862305]}},{"text": "\u062a\u0635\u0628\u062d\u0648\u0646 \u0639\u0644\u0649 \u062e\u064a\u0631", "created_at": "2013-04-12T18:40:47", "screen_name": "Galaxy_G27", "coordinates": {"type": "Point", "coordinates": [46.55956, 24.58906]}},{"text": "\u0627\u0644\u0628\u0646\u062a \u0644\u0648 \u062a\u0637\u064a\u062d \u0645\u0646 \u0627\u0644\u062f\u0631\u062c \u0648 \u062a\u062a\u0643\u0633\u0631 \u0631\u062c\u0644\u064a\u0646\u0647\u0627 \u0648\u0627\u0646\u062a\u064a \u0642\u0627\u0639\u062f\u0647 \u062a\u0635\u0648\u0631\u064a\u0646\u0647\u0627 \u0628\u062a\u062c\u064a\u0643 \u062a\u0632\u062d\u0641 \u0648\u062a\u0633\u0623\u0644\u0643 \u0648\u0631\u064a\u0646\u064a \u0643\u064a\u0641 \u0637\u0644\u0639 \u0634\u0643\u0644\u064a \u0628\u0627\u0644\u0635\u0648\u0631\u0647\u263a", "created_at": "2013-04-12T18:40:49", "screen_name": "AmnahAlsebea", "coordinates": {"type": "Point", "coordinates": [50.63189, 26.25372]}},{"text": "\u201cSin locura, no existe la felicidad.\u201d \ud83d\ude01", "created_at": "2013-04-12T18:40:49", "screen_name": "NinochkaVazquez", "coordinates": {"type": "Point", "coordinates": [-66.81596369, 18.48716868]}},{"text": "@LindsayAnasse @nadiadecayeux belle l'ivoirienne \u263a\u2764", "created_at": "2013-04-12T18:40:49", "screen_name": "MelanieTrazie", "coordinates": {"type": "Point", "coordinates": [-0.18250803, 49.18253729]}},{"text": "My sweet home (@ uydukent sitesi) http://t.co/cEynQLUoCn", "created_at": "2013-04-12T18:40:50", "screen_name": "aliaydede", "coordinates": {"type": "Point", "coordinates": [34.87160687, 36.93728046]}},{"text": "@Elollola aksoaksoaskaoskoaks", "created_at": "2013-04-12T18:40:50", "screen_name": "porrapeg", "coordinates": {"type": "Point", "coordinates": [-47.9519734, -16.1495557]}},{"text": "I'm at Papillion Cafe w/ 3 others http://t.co/j8JfF2ShQ6", "created_at": "2013-04-12T18:40:50", "screen_name": "efruu", "coordinates": {"type": "Point", "coordinates": [32.8255036, 39.92145674]}},{"text": "Hate feeling ill, totally bed-ridden atm. #notwinning \ud83d\ude33", "created_at": "2013-04-12T18:40:52", "screen_name": "JONESEY101", "coordinates": {"type": "Point", "coordinates": [-3.20076972, 51.59153864]}},{"text": "Oh no.. I forgot the schedule of Iris 2..", "created_at": "2013-04-12T18:40:54", "screen_name": "KValdez10", "coordinates": {"type": "Point", "coordinates": [121.07571214, 14.60681945]}},{"text": "\"@robtattoo78: Shaded daisy tattoo by me on @rosielucocq please RT if u like \ud83d\ude03\ud83d\ude03xx http://t.co/XvAV46St02\" yaaaay!", "created_at": "2013-04-12T18:40:55", "screen_name": "rosielucocq", "coordinates": {"type": "Point", "coordinates": [-0.6646073, 51.7914432]}},{"text": "A veces no s\u00e9 qu\u00e9 hacer contigo, pero tampoco s\u00e9 que hacer sin ti.", "created_at": "2013-04-12T18:40:55", "screen_name": "MetallicLove", "coordinates": {"type": "Point", "coordinates": [-71.6354703, 10.5698751]}},{"text": "RT y califico tu cuenta del \u2661 al \u2661\u2661\u2661. \nBio\nIcon\nBanner\nNombre\nHeader\n\nSolo si me sigues, DOY FOLLOW BACK.  x34", "created_at": "2013-04-12T18:40:56", "screen_name": "jhasmeel", "coordinates": {"type": "Point", "coordinates": [-73.85831814, 40.75298436]}},{"text": "@theBLACKKamigo boy you out yo mind !", "created_at": "2013-04-12T18:40:57", "screen_name": "ShowOutKookie", "coordinates": {"type": "Point", "coordinates": [-96.50017524, 32.07267161]}},{"text": "I need your timeeeeeeeeeee", "created_at": "2013-04-12T18:41:00", "screen_name": "SydneyPurl", "coordinates": {"type": "Point", "coordinates": [0.60767323, 52.26392694]}},{"text": "Medo desse tempo louco", "created_at": "2013-04-12T18:41:02", "screen_name": "caroliinewm", "coordinates": {"type": "Point", "coordinates": [-48.63274952, -26.99179375]}},{"text": "Aw okay . @Mention_Jamie", "created_at": "2013-04-12T18:41:04", "screen_name": "TheRealTrenaye", "coordinates": {"type": "Point", "coordinates": [-86.56069002, 35.98930644]}},{"text": "I'm gone you ain't gonna bring me back so gone couldn't tell you where I'm at", "created_at": "2013-04-12T18:41:04", "screen_name": "tjwilk", "coordinates": {"type": "Point", "coordinates": [-90.77302471, 37.92351258]}},{"text": "Filipe e isabelle se beijam no parque @fe_breda e @BelleMelhado", "created_at": "2013-04-12T18:41:05", "screen_name": "VitoMazzer", "coordinates": {"type": "Point", "coordinates": [-46.9265171, -22.9507178]}},{"text": "I'm at Midpoint (\u0130stanbul, T\u00fcrkiye) w/ 29 others http://t.co/fOeMHZD03H", "created_at": "2013-04-12T18:41:06", "screen_name": "BiirseenErdem", "coordinates": {"type": "Point", "coordinates": [28.88691902, 40.9962006]}},{"text": "@syafikahfaaiz ye saya la orangnye", "created_at": "2013-04-12T18:41:08", "screen_name": "faizah0711", "coordinates": {"type": "Point", "coordinates": [101.88300262, 2.91488257]}},{"text": "What's good for today world. Riding listening to \"Blocka\" VA all the fucking time.", "created_at": "2013-04-12T18:41:09", "screen_name": "MrRowb", "coordinates": {"type": "Point", "coordinates": [-76.2796604, 36.8456949]}},{"text": "\u201c@toOoti_lk: \" \u0623\u062d\u062a\u0627\u062c\u0651 \u0623\u0646 \u0623\u0641\u0631\u062d\u064f \u0628\u062d\u062f\u064a\u0650\u062b\u0643 \u0648\u0635\u064e\u0648\u067a\u064f\u0643 \u060c \n\u0623\u062d\u062a\u0627\u062c\u064f \u0623\u0646 \u0623\u0646\u0633\u064e\u0649 \u062a\u0639\u0628\u064a\u0651 \u0628\u064e\u0642\u0631\u0628\u0651\u0643 \u0623\u062d\u062a\u0627\u062c\u064f\u0643 \u0627\u0646\u062a\"\u201d", "created_at": "2013-04-12T18:41:09", "screen_name": "aissm1", "coordinates": {"type": "Point", "coordinates": [50.12431488, 26.46767654]}},{"text": "- at alex_kurian 's #InternationalFitnessCentre @ international fitness centre http://t.co/aDzXzUvJu0", "created_at": "2013-04-12T18:41:09", "screen_name": "varunontweet", "coordinates": {"type": "Point", "coordinates": [77.55785465, 13.03482971]}},{"text": "@TIM119Giulia certamente :)", "created_at": "2013-04-12T18:41:11", "screen_name": "domenicopanacea", "coordinates": {"type": "Point", "coordinates": [15.23289305, 38.17205993]}},{"text": "@Arab_Idol unlike", "created_at": "2013-04-12T18:41:11", "screen_name": "ZinAmarin", "coordinates": {"type": "Point", "coordinates": [35.7334552, 31.1689991]}},{"text": "@LaforgueKevin Bah ok j'tattend :)", "created_at": "2013-04-12T18:41:12", "screen_name": "DanaAldick", "coordinates": {"type": "Point", "coordinates": [7.05296811, 43.57939414]}},{"text": "Amo a mi novia :$", "created_at": "2013-04-12T18:41:13", "screen_name": "JasonSxE", "coordinates": {"type": "Point", "coordinates": [-89.23452, 13.69535]}},{"text": "Home home :) (@ Acarlar Sitesi V Blok) http://t.co/G1oI201Z0P", "created_at": "2013-04-12T18:41:15", "screen_name": "AtariMuhendisi", "coordinates": {"type": "Point", "coordinates": [29.15650875, 40.98705167]}},{"text": "@KellyLouiseT aww that's brilliant :)", "created_at": "2013-04-12T18:41:16", "screen_name": "stevieboy81", "coordinates": {"type": "Point", "coordinates": [-5.95458465, 54.57744314]}},{"text": "@kalimeeroo suan manisa sahane ozellikle han cafe :-)", "created_at": "2013-04-12T18:41:19", "screen_name": "ediseyyah", "coordinates": {"type": "Point", "coordinates": [27.7097005, 38.498496]}},{"text": "Stress :/", "created_at": "2013-04-12T18:41:19", "screen_name": "meFazira", "coordinates": {"type": "Point", "coordinates": [101.58575299, 3.19488855]}},{"text": "\u201c@lonley_starx0: spring breaaaak \ud83c\udf89\ud83c\udf8a\ud83c\udf88\ud83d\udeac\ud83d\udc8a\ud83c\udf7a\ud83d\ude02\ud83d\udc4f\u201d", "created_at": "2013-04-12T18:41:19", "screen_name": "lizzyflygirl", "coordinates": {"type": "Point", "coordinates": [-74.15349192, 40.86747574]}},{"text": "\u2661 @KeatonStromberg Wake up every morning with the thought that something wonderful is about to happen. So follow me to make that happen.\u266124", "created_at": "2013-04-12T18:41:21", "screen_name": "okaywes", "coordinates": {"type": "Point", "coordinates": [-46.452736, -23.5418552]}},{"text": "OKOKOO TROP GRS CUUUU", "created_at": "2013-04-12T18:41:21", "screen_name": "LetiiceMbg", "coordinates": {"type": "Point", "coordinates": [2.2230362, 48.9541126]}},{"text": "Enak aja, qe tu yg pungo :p RT@conden77: Sama kek qe pungo haha\"@sharydjoeno: Ho'oh,, cem pungo tu RT@conden77: Yg byk anting tu ya", "created_at": "2013-04-12T18:41:21", "screen_name": "sharydjoeno", "coordinates": {"type": "Point", "coordinates": [95.30467, 5.51838]}},{"text": "@m_mstr \u0623\u0646\u0632\u064a\u0646 \u0623\u0646\u062a\u0647 / \u0622\u0646\u062a\u064a \u0628\u0646\u062a \u0648 \u0644\u0627 \u0648\u0644\u062f", "created_at": "2013-04-12T18:41:21", "screen_name": "alneyadi70", "coordinates": {"type": "Point", "coordinates": [55.83767, 24.07977]}},{"text": "I hate school so much..", "created_at": "2013-04-12T18:41:25", "screen_name": "ThatbitchZoe", "coordinates": {"type": "Point", "coordinates": [-97.39391, 27.75245]}},{"text": "Now hiring: Systems Administration - 2 - Axelon Services Corporation - Irving, TX http://t.co/qGSr2q6L6c #jobcircle #jobs", "created_at": "2013-04-12T18:41:26", "screen_name": "Arlingtoncareer", "coordinates": {"type": "Point", "coordinates": [-96.9719, 32.842]}},{"text": "Holy shit. Can drama just stop for 1 day? It's Friday. Chill", "created_at": "2013-04-12T18:41:26", "screen_name": "BdogTaylor", "coordinates": {"type": "Point", "coordinates": [-93.00793387, 45.24603201]}},{"text": "@_Q2kt \u0e02\u0e01.\u0e19\u0e2d\u0e1955 \u0e19\u0e31\u0e48\u0e07\u0e2d\u0e48\u0e32\u0e19\u0e2d\u0e30\u0e44\u0e23\u0e44\u0e1b\u0e40\u0e23\u0e37\u0e48\u0e2d\u0e22\u0e46", "created_at": "2013-04-12T18:41:28", "screen_name": "kriswhitelet", "coordinates": {"type": "Point", "coordinates": [101.01142908, 13.35303172]}},{"text": "Hoy me tenia el parche bacano para cuando llegara Ana, pero ya no va a venir asi que mas bien me acostare a domir :'(", "created_at": "2013-04-12T18:41:31", "screen_name": "yoque_soy", "coordinates": {"type": "Point", "coordinates": [-75.69733296, 4.79819566]}},{"text": "Cuanta aprovechada hay por Elche #Nosontontas", "created_at": "2013-04-12T18:41:31", "screen_name": "DolceFerrandez", "coordinates": {"type": "Point", "coordinates": [-0.6952721, 38.2666084]}},{"text": "Matane kriyip,,,,kriyip.....", "created_at": "2013-04-12T18:41:32", "screen_name": "Ndimexz", "coordinates": {"type": "Point", "coordinates": [111.54399, -7.62172]}},{"text": "5- \u043c\u043e\u0435 \u0441\u0430\u043c\u043e\u0435 \u0441\u0447\u0430\u0441\u0442\u043b\u0438\u0432\u043e\u0435 \u0447\u0438\u0441\u043b\u043e, \u0442\u0430\u043a \u0447\u0442\u043e \u043f\u043e\u0441\u0432\u044f\u0449\u0430\u044e \u0441\u0432\u043e\u0439 555 \u0442\u0432\u0438\u0442 \u0432\u0441\u0435\u043c \u043c\u043e\u0438\u043c \u0441\u0430\u043c\u044b\u043c \u0431\u043b\u0438\u0437\u043a\u0438\u043c \u043b\u044e\u0434\u044f\u043c, \u0434\u0440\u0443\u0437\u044c\u044f\u043c, \u0440\u043e\u0434\u043d\u044b\u043c \u0438 \u043a\u043e\u0442\u0438\u043a\u0443- \u0431\u0443\u0434\u044c\u0442\u0435 \u0441\u0447\u0430\u0441\u0442\u043b\u0438\u0432\u044b)*", "created_at": "2013-04-12T18:41:33", "screen_name": "LizaVuets", "coordinates": {"type": "Point", "coordinates": [30.61782265, 50.40661023]}},{"text": "aye that would work.... http://t.co/1tA9DpP2xL", "created_at": "2013-04-12T18:41:33", "screen_name": "patsweeney63", "coordinates": {"type": "Point", "coordinates": [-2.9613509, 55.9706765]}},{"text": "bokgi..^__^ (at Bukit Indah Sukajadi) \u2014 http://t.co/3MkByr6Pe7", "created_at": "2013-04-12T18:41:34", "screen_name": "diniwhy", "coordinates": {"type": "Point", "coordinates": [104.03625874, 1.10606776]}},{"text": "outcoldofficial coming soon on Heavenly. @ Heavenly Recordings http://t.co/p7T1y0wtL2", "created_at": "2013-04-12T18:41:35", "screen_name": "heavenlyrecs", "coordinates": {"type": "Point", "coordinates": [-0.20531189, 51.51662064]}},{"text": "Ambrine elle fait toute une histoire pour des kinders ptnnnnnnn", "created_at": "2013-04-12T18:41:37", "screen_name": "Kaanoury", "coordinates": {"type": "Point", "coordinates": [3.07299946, 50.61145475]}},{"text": "Hola me llamo gasolina y soy tu peor enemiga \ud83d\ude48 @ Allende, Nuevo Leon http://t.co/IT57D2t20y", "created_at": "2013-04-12T18:41:38", "screen_name": "LuismMtzm", "coordinates": {"type": "Point", "coordinates": [-100.02065764, 25.28018056]}},{"text": "Cherry Blossoms and planes @ East Potomac Park http://t.co/BhNCoMqkGV", "created_at": "2013-04-12T18:41:38", "screen_name": "achatel311", "coordinates": {"type": "Point", "coordinates": [-77.02666757, 38.87472354]}},{"text": "Maaaaaat, hoe kun je zo lekker zijn http://t.co/PJgaMxy4lF", "created_at": "2013-04-12T18:41:39", "screen_name": "Saegaert", "coordinates": {"type": "Point", "coordinates": [5.49599423, 51.76103615]}},{"text": "Job", "created_at": "2013-04-12T18:41:41", "screen_name": "DaBigDM", "coordinates": {"type": "Point", "coordinates": [-80.9331246, 34.0660794]}},{"text": "@moralcKiller this is twitter, coral", "created_at": "2013-04-12T18:41:43", "screen_name": "sharayah_slavik", "coordinates": {"type": "Point", "coordinates": [-95.41107648, 45.85578435]}},{"text": "I'm craving Chinese foot so bad!!!!", "created_at": "2013-04-12T18:41:43", "screen_name": "TeamPrice22", "coordinates": {"type": "Point", "coordinates": [-81.55056275, 39.27042021]}},{"text": "@Jor_fuckin_dana no writing but a design", "created_at": "2013-04-12T18:41:43", "screen_name": "Channisejuanita", "coordinates": {"type": "Point", "coordinates": [-75.72794843, 39.67707408]}},{"text": "Rupanya kau juga sama seperti aku merasa cinta.", "created_at": "2013-04-12T18:41:44", "screen_name": "suhaibaismail", "coordinates": {"type": "Point", "coordinates": [103.7892323, 1.5941233]}},{"text": "\u0627\u0628\u0648 \u0631\u0627\u0641\u0639 \u0627\u0633\u0645 \u0641\u062e\u0645 \u0641\u062e\u0645 \u0628\u0634\u0643\u0644.....", "created_at": "2013-04-12T18:41:44", "screen_name": "sma_Am", "coordinates": {"type": "Point", "coordinates": [46.80463, 24.70572]}},{"text": "@la_lectora Gracias bella!!se me eriza la piel!!As\u00ed ser\u00e1 con la ayuda de Dios!Feliz viernes!Abrazote", "created_at": "2013-04-12T18:41:50", "screen_name": "Nuvia01", "coordinates": {"type": "Point", "coordinates": [-62.39958, 8.01905]}},{"text": "Futuras estrellas del #PadelFemenino entrenando en @CondesaSport @SaritaBua @CarlaMunhiz http://t.co/1F3wQ6088i", "created_at": "2013-04-12T18:41:52", "screen_name": "AngelaMtez", "coordinates": {"type": "Point", "coordinates": [-8.65774047, 42.58955073]}},{"text": "Craving dobaaaa #thedailystruggle", "created_at": "2013-04-12T18:41:53", "screen_name": "alexxmartinn", "coordinates": {"type": "Point", "coordinates": [-118.81428225, 34.16202944]}},{"text": "@DevinBook I don't think you understand how much Mizzou wants you to follow in your dads footsteps and continue on his legacy #TigerFam", "created_at": "2013-04-12T18:41:55", "screen_name": "Micaela4Mizzou", "coordinates": {"type": "Point", "coordinates": [-90.57803075, 38.77939518]}},{"text": "I'm at Friend's Bar And Grill (Newtown, PA) http://t.co/M6Hc1jMMHP", "created_at": "2013-04-12T18:41:56", "screen_name": "Dichanin", "coordinates": {"type": "Point", "coordinates": [-74.94002036, 40.23516842]}},{"text": "I'm at Pra\u00e7a da Independ\u00eancia (Palmeira dos \u00cdndios, AL) http://t.co/KXaOFJPpJs", "created_at": "2013-04-12T18:41:57", "screen_name": "jonaskyoshi", "coordinates": {"type": "Point", "coordinates": [-36.63008556, -9.4059123]}},{"text": "@Anthonyy101 lol yeah my parents paid for my rent and everything til I was 22 and most people from Spfld are the same way", "created_at": "2013-04-12T18:42:00", "screen_name": "klcardinals", "coordinates": {"type": "Point", "coordinates": [-93.27256273, 37.13779033]}},{"text": "Demli bir \u00e7ay  #\u00d6mreBedeldir", "created_at": "2013-04-12T18:42:01", "screen_name": "RefikTsn", "coordinates": {"type": "Point", "coordinates": [28.8748391, 40.9992336]}},{"text": "I'm at Al-Mayas Beirut \u0627\u0644\u0645\u064a\u0627\u0633 \u0628\u064a\u0631\u0648\u062a (Riyadh) w/ 9 others http://t.co/9NngANF2Tw", "created_at": "2013-04-12T18:42:01", "screen_name": "MeemeeNk", "coordinates": {"type": "Point", "coordinates": [46.6815667, 24.68703915]}},{"text": "I'm at The Shops of Grand Avenue - @shopsofgrandave (Milwaukee, WI) w/ 5 others http://t.co/M2AKhiUOyJ", "created_at": "2013-04-12T18:42:02", "screen_name": "co984life", "coordinates": {"type": "Point", "coordinates": [-87.91444888, 43.03840882]}},{"text": "@qatarihot @alqblan @ali_alshamsi @Hamad_Al_Meer  \u0648\u064a\u0646 \u0639\u0628\u062f \u0627\u0644\u0634\u0648\u0627\u0645\u0633 \u0627\u0644\u062e\u0627\u064a\u0633", "created_at": "2013-04-12T18:42:05", "screen_name": "AjDoha", "coordinates": {"type": "Point", "coordinates": [51.4498765, 25.3412114]}},{"text": "Yeniden say\u0131s\u0131ni art\u0131k hat\u0131rlamad\u0131\u011f\u0131 kurulumu yapmakta :) (@ Bo\u011fazi\u00e7i mavievler sitesi w/ @arsayca) http://t.co/fOMbdsAaO5", "created_at": "2013-04-12T18:42:05", "screen_name": "daisyelfs", "coordinates": {"type": "Point", "coordinates": [28.86242537, 41.09369878]}},{"text": "@tikaesa13 mungkin mikha ga dikasih mkn sm emaknya dari awal mau audisi xfctr", "created_at": "2013-04-12T18:42:07", "screen_name": "tasyasaskia", "coordinates": {"type": "Point", "coordinates": [106.7916347, -6.6052301]}},{"text": "@Re_andrade2012 Sdds Hazzinha... Sdds..  :'(", "created_at": "2013-04-12T18:42:09", "screen_name": "_PleaseBeMine1D", "coordinates": {"type": "Point", "coordinates": [-50.4076041, -23.0141954]}},{"text": "Feeling very nervous at the moment", "created_at": "2013-04-12T18:42:10", "screen_name": "lindscignarale", "coordinates": {"type": "Point", "coordinates": [-77.68613163, 43.21034225]}},{"text": "\u201c@Oum_s: Qui pr\u00e9voit de faire ou fait de longues \u00e9tudes?\u201d \u261d", "created_at": "2013-04-12T18:42:10", "screen_name": "nibempbIV", "coordinates": {"type": "Point", "coordinates": [2.05963825, 48.45549347]}},{"text": "I feel like there is never going to be an even skin tone there ever again \ud83d\ude16\ud83d\ude16\ud83d\ude16\ud83d\ude16 http://t.co/rxP8EOzA8s", "created_at": "2013-04-12T18:42:11", "screen_name": "juicyyymaneee", "coordinates": {"type": "Point", "coordinates": [-84.09318877, 33.88232235]}},{"text": "@jdipietro9775 @darcyyy98 wait what", "created_at": "2013-04-12T18:42:14", "screen_name": "MwapeIsAfrica", "coordinates": {"type": "Point", "coordinates": [-75.02115359, 39.92897413]}},{"text": "MOS BuRGER\u5bb5\u591c\uff3e\uff3e http://t.co/ku5PJWJJpE", "created_at": "2013-04-12T18:42:14", "screen_name": "stnleesw", "coordinates": {"type": "Point", "coordinates": [120.3305127, 22.6289789]}},{"text": "Happy birthday @calideexo \ud83d\ude18\ud83c\udf88\u2764", "created_at": "2013-04-12T18:42:15", "screen_name": "giannaambrosio", "coordinates": {"type": "Point", "coordinates": [-75.29906949, 40.74199404]}},{"text": "S/o to Tayi for backin into some bitches movin car when we were leavin the Pike house ln \"omg im so so sorry, i really didnt mean it\" \ud83d\ude02\ud83d\ude02\ud83d\ude02", "created_at": "2013-04-12T18:42:18", "screen_name": "_FresHabeR_", "coordinates": {"type": "Point", "coordinates": [-74.82055584, 39.00187984]}},{"text": "QUERO CHUPA UMA NARINA", "created_at": "2013-04-12T18:42:20", "screen_name": "LesbianforSyn", "coordinates": {"type": "Point", "coordinates": [-46.4571585, -23.9961286]}},{"text": "Hange op bank en na tv kyke ma zooo saai progamma dus whatsappenn", "created_at": "2013-04-12T18:42:20", "screen_name": "leonievdzanden1", "coordinates": {"type": "Point", "coordinates": [5.5904552, 51.5188169]}},{"text": "We just visited @DODOsays HQ. they're doing an amazing job keeping the art of bookbinding alive for modern life. http://t.co/npoS4yHgLK", "created_at": "2013-04-12T18:42:20", "screen_name": "partlypixie", "coordinates": {"type": "Point", "coordinates": [-122.3884848, 37.75640886]}},{"text": "\u0410 \u0432\u0435\u0434\u044c \u0442\u0430\u043c \u043b\u0443\u0447\u0448\u0435. \u0418\u043b\u0438 \u043b\u0443\u0447\u0448\u0435 \u0433\u0434\u0435 \u0443\u0433\u043e\u0434\u043d\u043e, \u043b\u0438\u0448\u044c \u0431\u044b \u0432\u044b \u0431\u044b\u043b\u0438 \u0440\u044f\u0434\u043e\u043c", "created_at": "2013-04-12T18:42:22", "screen_name": "Ri_Marmeladka", "coordinates": {"type": "Point", "coordinates": [30.19441673, 59.85806137]}},{"text": "Who wanna bring a real nigga some to eat", "created_at": "2013-04-12T18:42:22", "screen_name": "OfficialArista", "coordinates": {"type": "Point", "coordinates": [-87.5215425, 33.1983576]}},{"text": "#heyoo #friendship #enjoy #silly #goodtime #stupid #silly #friends #funny #ehehehu #smile #cheese\u2026 http://t.co/FYKRRUYWDJ", "created_at": "2013-04-12T18:42:23", "screen_name": "sacmasapanimsi", "coordinates": {"type": "Point", "coordinates": [29.06420231, 40.97931489]}},{"text": "\u201c@LilJaiJay: If good pussy makes a nigga stay then why all you ladies single?\u201d", "created_at": "2013-04-12T18:42:28", "screen_name": "PrettyYella1_", "coordinates": {"type": "Point", "coordinates": [-92.02924183, 34.19653583]}},{"text": "Smoke", "created_at": "2013-04-12T18:42:29", "screen_name": "johnb7678", "coordinates": {"type": "Point", "coordinates": [-82.7718546, 42.6749971]}},{"text": "@Lindsey__Smith @chelceeputtputt I can't wait to meet her too!!", "created_at": "2013-04-12T18:42:29", "screen_name": "Stayawake_tina", "coordinates": {"type": "Point", "coordinates": [-84.57695505, 34.08752156]}},{"text": "FYI, breaking bad omg omg omg", "created_at": "2013-04-12T18:42:31", "screen_name": "shingdingaling", "coordinates": {"type": "Point", "coordinates": [-96.8743924, 32.8302924]}},{"text": "@CalvertCharles no problem mate", "created_at": "2013-04-12T18:42:31", "screen_name": "LaugherBreakers", "coordinates": {"type": "Point", "coordinates": [-1.72300755, 53.83701658]}},{"text": "Nope, I'm gonna shower then watch a movie and eat pizza , THEN ill style my wig", "created_at": "2013-04-12T18:42:31", "screen_name": "HeirofTime", "coordinates": {"type": "Point", "coordinates": [-72.60553557, 42.19719145]}},{"text": "@Skendarian_vp whats up ^_^", "created_at": "2013-04-12T18:42:31", "screen_name": "SherrodyRoddy", "coordinates": {"type": "Point", "coordinates": [-73.2422284, 41.2213083]}},{"text": "I'm at Yerf\u0131st\u0131\u011f\u0131 (\u0130stanbul, T\u00fcrkiye) w/ 42 others http://t.co/L821MxvNzC", "created_at": "2013-04-12T18:42:31", "screen_name": "zeynepleylak", "coordinates": {"type": "Point", "coordinates": [29.06557573, 40.96436975]}},{"text": "@DannyWeymier23 Jersey?", "created_at": "2013-04-12T18:42:33", "screen_name": "theBIGCAT7412", "coordinates": {"type": "Point", "coordinates": [-88.06505442, 42.98022151]}},{"text": "I don't talk about you, so you don't have the right to talk about me!! That's how I look at things. \n#rudepeople", "created_at": "2013-04-12T18:42:36", "screen_name": "JaneyJaneyguice", "coordinates": {"type": "Point", "coordinates": [-93.3030238, 32.5169536]}},{"text": "Taj Mahal in the#aatwvideo. .OMFG I am screamin n shouting going BONKERSSSS...", "created_at": "2013-04-12T18:42:36", "screen_name": "AhiroPipriChu", "coordinates": {"type": "Point", "coordinates": [77.5082522, 13.069842]}},{"text": "@THF_KP lol no no no", "created_at": "2013-04-12T18:42:38", "screen_name": "Cee_Cee74", "coordinates": {"type": "Point", "coordinates": [-85.829498, 38.2993245]}},{"text": "Ikimizde seviyorduk ama sanirm ben daha cok sevdim.", "created_at": "2013-04-12T18:42:38", "screen_name": "Burcin2672", "coordinates": {"type": "Point", "coordinates": [37.41112253, 41.08916473]}},{"text": "@0ut_0f_my_Mind Kay. After school you're telling me what they said :) and hahahah sowwy ;P", "created_at": "2013-04-12T18:42:39", "screen_name": "flashreaction", "coordinates": {"type": "Point", "coordinates": [-88.28533878, 43.3304722]}},{"text": "kuru gectim dedigimde islatiriz islak gecersin diye cevap veren @YukselOzge  seni ve bu hallerini seviyorum galiba ;S", "created_at": "2013-04-12T18:42:39", "screen_name": "TuubaKavurucu", "coordinates": {"type": "Point", "coordinates": [33.3657007, 35.1877395]}},{"text": "Eda sort je suis au bus la il va pas tarder", "created_at": "2013-04-12T18:42:40", "screen_name": "LaBosssssss", "coordinates": {"type": "Point", "coordinates": [0.72542057, 47.39327253]}},{"text": "@ItsOnYouRick wanna go !", "created_at": "2013-04-12T18:42:43", "screen_name": "ForeverYoursx__", "coordinates": {"type": "Point", "coordinates": [-74.13351847, 40.7799429]}},{"text": "Jajajaja que verga!", "created_at": "2013-04-12T18:42:44", "screen_name": "naaiisaez", "coordinates": {"type": "Point", "coordinates": [-68.117155, -38.9558244]}},{"text": "Most people lie to protect... All people lie \u201c@TamaraYeghiayan: @Tito8aLA that's not necessarily true\u201d", "created_at": "2013-04-12T19:40:02", "screen_name": "Tito8aLA", "coordinates": {"type": "Point", "coordinates": [-118.24674765, 33.97652722]}},{"text": "Look how cute my dog is! http://t.co/ZEMiX8TOXh", "created_at": "2013-04-12T19:40:03", "screen_name": "anthonytran3", "coordinates": {"type": "Point", "coordinates": [-122.15464404, 47.52442509]}},{"text": "I like drinkin cause it's fun \u2764\ud83c\udf7a\ud83c\udfb6 \n#ChaseRice", "created_at": "2013-04-12T19:40:05", "screen_name": "KiaQuick57", "coordinates": {"type": "Point", "coordinates": [-86.07247723, 35.45510553]}},{"text": "\u0648\u0644\u0643\u0646 \u0627\u0644\u0641\u0631\u0642\u0627 \u0628\u062f\u062a \u0645\u0646\u0643 \u0635\u0631\u064a\u062d\u0647 .. \u0648\u0627\u0644\u062d\u0632\u0646 \u0645\u0646\u0647\u0627 \u0644\u0628\u0633 \u0642\u0644\u0628\u064a \u062b\u064a\u0627\u0628", "created_at": "2013-04-12T19:40:05", "screen_name": "Miroqahtani", "coordinates": {"type": "Point", "coordinates": [36.57762, 28.3801]}},{"text": "#nw Kill Bill Vol. 1", "created_at": "2013-04-12T19:40:06", "screen_name": "TannIsTheMann", "coordinates": {"type": "Point", "coordinates": [-83.21695649, 30.97457421]}},{"text": "Shout out to @LA_Quinn18 for the solid he did about a year and 9 months ago!", "created_at": "2013-04-12T19:40:06", "screen_name": "kadedemarie2", "coordinates": {"type": "Point", "coordinates": [-93.20883873, 30.19472467]}},{"text": "=)) \"@Iam_Lordpain: Whether u fine o or not, I no go like u cos u dey bleach. #Claimursub\"", "created_at": "2013-04-12T19:40:07", "screen_name": "Toity_McQueeen", "coordinates": {"type": "Point", "coordinates": [7.4808266, 9.07874]}},{"text": "Extra\u00f1o la adrenalina de salir en bici... http://t.co/akmJwJEZXD", "created_at": "2013-04-12T19:40:07", "screen_name": "Oswaldo_dlV", "coordinates": {"type": "Point", "coordinates": [-98.2264141, 19.0826667]}},{"text": "@nicolep_tw yeah I hope so, they're starting to get more now so I think they will :) xx", "created_at": "2013-04-12T19:40:11", "screen_name": "RachelTW_Lawson", "coordinates": {"type": "Point", "coordinates": [-1.20733357, 53.14354453]}},{"text": "@sabriinavieira simmmmmmm (:", "created_at": "2013-04-12T19:40:12", "screen_name": "b3lievebieber", "coordinates": {"type": "Point", "coordinates": [-43.7261934, -22.716546]}},{"text": "Fxck c long men", "created_at": "2013-04-12T19:40:14", "screen_name": "IamMarcoPollo", "coordinates": {"type": "Point", "coordinates": [-73.65832589, 45.53458034]}},{"text": "@Stephane_Fe faz assim, l\u00e1 pelas 7 eu to a\u00ed, pode ser?", "created_at": "2013-04-12T19:40:15", "screen_name": "pqsimanu", "coordinates": {"type": "Point", "coordinates": [-47.6990978, -22.6694489]}},{"text": "\u201c@mratliff14: I don't think you know what you're talking about..?\u201d", "created_at": "2013-04-12T19:40:15", "screen_name": "Jordan_Tiner", "coordinates": {"type": "Point", "coordinates": [-82.57177655, 31.17021018]}},{"text": "Mal au ventre .", "created_at": "2013-04-12T19:40:17", "screen_name": "Gwenoush", "coordinates": {"type": "Point", "coordinates": [2.0991437, 48.71622846]}},{"text": "Hitting #twistedfridays in Vanilla tonight to see my boy @DJAlexBee tear the place up!! @westyboi30 @B77Lewis #3nightsinarow \ud83d\ude32", "created_at": "2013-04-12T19:40:17", "screen_name": "JackBlakemore", "coordinates": {"type": "Point", "coordinates": [-3.14373965, 51.67477713]}},{"text": "@Francisco_Bosch It really is! AND I'm having my dinner cooked for me! :-)", "created_at": "2013-04-12T19:40:19", "screen_name": "Somhairle", "coordinates": {"type": "Point", "coordinates": [-0.07147014, 51.39657904]}},{"text": "Gola", "created_at": "2013-04-12T19:40:19", "screen_name": "maanriiquee", "coordinates": {"type": "Point", "coordinates": [-94.15081075, 18.13726574]}},{"text": "@Elinho_7 not even Saturday", "created_at": "2013-04-12T19:40:22", "screen_name": "TarHeelBoy4God", "coordinates": {"type": "Point", "coordinates": [-80.89925415, 35.793264]}},{"text": "T'es apparut un soir d'hiver . Un soir ou j'voyais double.", "created_at": "2013-04-12T19:40:27", "screen_name": "DicaprioMarie", "coordinates": {"type": "Point", "coordinates": [2.0125469, 47.9153635]}},{"text": "@HUT_Trader your such a pussy for blocking and u won't play me your a bitch! Wait till nhl14 ill shut your Paige down it sucks anyways", "created_at": "2013-04-12T19:40:27", "screen_name": "DziendzielTyler", "coordinates": {"type": "Point", "coordinates": [-83.1532479, 42.2132278]}},{"text": "Babe! Can't wait to see ya in Muscat!", "created_at": "2013-04-12T19:40:28", "screen_name": "midspace95", "coordinates": {"type": "Point", "coordinates": [72.84259443, 19.17440248]}},{"text": "@holmes_liam @jessharrison4   Oh, and yes Liam;)x", "created_at": "2013-04-12T19:40:28", "screen_name": "PatezLUFC", "coordinates": {"type": "Point", "coordinates": [-1.73360384, 53.74233516]}},{"text": "Znate li vi \u0161ta je ovo? To su bili \u010dupavci!  http://t.co/m7N7bqIPBr", "created_at": "2013-04-12T19:40:28", "screen_name": "GoranSTX", "coordinates": {"type": "Point", "coordinates": [19.2860511, 44.4965818]}},{"text": "Only 4 brave men! Support team this time #trail #running #100mile #ultramarathon #istra #offroad @ Rabac http://t.co/t8eNu2tNRQ", "created_at": "2013-04-12T19:40:28", "screen_name": "aleshostnik", "coordinates": {"type": "Point", "coordinates": [14.15872425, 45.07919527]}},{"text": "@BostonBoy322 You know where I'll be next Wed night. Let's hope it matters. #Lakers http://t.co/m59rTP8b6W", "created_at": "2013-04-12T19:40:29", "screen_name": "THrants", "coordinates": {"type": "Point", "coordinates": [-117.866775, 33.698462]}},{"text": "Ibiiii :)", "created_at": "2013-04-12T19:40:32", "screen_name": "MorenitoRubio", "coordinates": {"type": "Point", "coordinates": [-5.3454733, 36.1761926]}},{"text": "Some how I'm wearing my *new* bikini under my *new* onesie !!!?!!", "created_at": "2013-04-12T19:40:35", "screen_name": "Loren_Downes", "coordinates": {"type": "Point", "coordinates": [1.17567, 51.08147]}},{"text": "@AshleighEllisx @danniii_boiii aww dee it must be love if u watching that haha ;)", "created_at": "2013-04-12T19:40:36", "screen_name": "StrongBrows", "coordinates": {"type": "Point", "coordinates": [-2.13995629, 51.98232207]}},{"text": "Everything's gonna be alright", "created_at": "2013-04-12T19:40:36", "screen_name": "jessyyjayy", "coordinates": {"type": "Point", "coordinates": [1.42315103, 51.33381411]}},{"text": "#Bababooey shout out on tiger's tee shot on 6th @jdharm @HowardStern", "created_at": "2013-04-12T19:40:37", "screen_name": "crankycrandall", "coordinates": {"type": "Point", "coordinates": [-122.12316639, 47.68402416]}},{"text": "@Alissaa27 boring** \ud83d\ude09 #Ohboy", "created_at": "2013-04-12T19:40:38", "screen_name": "julia_rybakk", "coordinates": {"type": "Point", "coordinates": [-80.05227584, 43.70767679]}},{"text": "Alright good two putt for Phil, now the cut just needs to stay above +3 so phil can make a run this weekend! #gophil", "created_at": "2013-04-12T19:40:40", "screen_name": "claymslay", "coordinates": {"type": "Point", "coordinates": [-83.64647917, 41.38013866]}},{"text": "\u201c@AliiRey: De cenita con mi primitaaaaaa :)\u201d\nGordibolas en acci\u00f3n", "created_at": "2013-04-12T19:40:42", "screen_name": "chin0s0n85", "coordinates": {"type": "Point", "coordinates": [-8.68620465, 42.17082165]}},{"text": "@ollgdokidr4uhl vou sair aqui, volto depois. Bjs", "created_at": "2013-04-12T19:40:43", "screen_name": "lettersformari", "coordinates": {"type": "Point", "coordinates": [-35.20438589, -5.87672246]}},{"text": "It don cleared up think ill do a lol sumthin sumthin", "created_at": "2013-04-12T19:40:43", "screen_name": "Jay_LDFMG", "coordinates": {"type": "Point", "coordinates": [-89.91030675, 30.01532467]}},{"text": "@_cPearson everything will be just fine!! :p", "created_at": "2013-04-12T19:40:45", "screen_name": "Doouble_D", "coordinates": {"type": "Point", "coordinates": [-87.634558, 39.9799698]}},{"text": "\u0411\u0443\u0434\u0443 \u0441\u043c\u043e\u0442\u0440\u0435\u0442\u044c \"\u043c\u043e\u0440\u0441\u043a\u043e\u0439 \u0431\u043e\u0439\"", "created_at": "2013-04-12T19:40:46", "screen_name": "grechnevaya", "coordinates": {"type": "Point", "coordinates": [27.6879532, 53.8910047]}},{"text": "Desde las 2pm, esperando el certificado que ya aparece entregado en el SAC #S\u00f3loPasaEnC\u00f3rdoba http://t.co/HVYxCK5Rcp", "created_at": "2013-04-12T19:40:46", "screen_name": "jamendozad", "coordinates": {"type": "Point", "coordinates": [-75.88676748, 8.75503351]}},{"text": "\u266a Justin Timberlake - Mirrors ( The 20/20 Experience ) \u2665\u2665", "created_at": "2013-04-12T19:40:47", "screen_name": "obbelfirdaus", "coordinates": {"type": "Point", "coordinates": [0.0, 0.0]}},{"text": "Recon lunch break for drawer pulls @hafeleamerica for our @RebldgTogthr house #volunteer http://t.co/i2AIVGdC2x", "created_at": "2013-04-12T19:40:47", "screen_name": "SanJuanVentures", "coordinates": {"type": "Point", "coordinates": [-87.6331709, 41.88999276]}},{"text": "Summer needs to hurry up.", "created_at": "2013-04-12T19:40:49", "screen_name": "TreyyOra", "coordinates": {"type": "Point", "coordinates": [-85.69316591, 38.11795514]}},{"text": "U drink and smoke pot everyday so maybe u should go to rehab and I should continue to enjoy myself ! Thank you very much!", "created_at": "2013-04-12T19:40:50", "screen_name": "tru3inspirati0n", "coordinates": {"type": "Point", "coordinates": [-79.05555449, 35.91857845]}},{"text": "More AZ beauty!! #cochise #azbeauty #sierravista @ Mountain View A/G http://t.co/6eY4T1euOV", "created_at": "2013-04-12T19:40:50", "screen_name": "Attrel", "coordinates": {"type": "Point", "coordinates": [-110.24842402, 31.55518862]}},{"text": "I'm at Alipa\u015fa Cafe w/ 5 others http://t.co/DAzEjex0ob", "created_at": "2013-04-12T19:40:51", "screen_name": "HakanAbik", "coordinates": {"type": "Point", "coordinates": [28.93457651, 41.0068643]}},{"text": "Julien il a dit on fais un Part\u00e9 mdr !", "created_at": "2013-04-12T19:40:52", "screen_name": "HendOuceJ", "coordinates": {"type": "Point", "coordinates": [2.61499947, 48.69216745]}},{"text": "Staff Accountant - Accountemps: ( #Toronto , ON) http://t.co/aiU6V96bL1 #Accounting #Job #Jobs #TweetMyJobs", "created_at": "2013-04-12T19:40:52", "screen_name": "tmj_gta_acct", "coordinates": {"type": "Point", "coordinates": [-79.3839069, 43.653524]}},{"text": "Headache is making it worse \ud83d\ude21", "created_at": "2013-04-12T19:40:55", "screen_name": "NoelPope", "coordinates": {"type": "Point", "coordinates": [-3.49979016, 55.93290074]}},{"text": "Sama mulesnya bang...heehe \"@Yogdi_: G ikut mules jg kan. . Hehe :D RT @Qiiekuk Rituit \"@Yogdi_: Ditengah malam mulez tuh sesuwatuh bngd", "created_at": "2013-04-12T19:40:58", "screen_name": "Qiiekuk", "coordinates": {"type": "Point", "coordinates": [111.3301796, -6.7281719]}},{"text": "@knowlzzy and I was just thinking you were being ignorant lol x", "created_at": "2013-04-12T19:40:59", "screen_name": "J_harrison86", "coordinates": {"type": "Point", "coordinates": [-2.70549657, 53.79253097]}},{"text": "When people try to give me back like 20 cents in change I just say keep it and walk out.", "created_at": "2013-04-12T19:40:59", "screen_name": "alwaysblonde420", "coordinates": {"type": "Point", "coordinates": [-88.7202607, 42.7184041]}},{"text": "@Milaurys_ @Brujitah16  no se preocupen !!", "created_at": "2013-04-12T19:41:00", "screen_name": "02_Juma", "coordinates": {"type": "Point", "coordinates": [-71.17218107, 42.68860615]}},{"text": "oo", "created_at": "2013-04-12T19:41:00", "screen_name": "brightmelf", "coordinates": {"type": "Point", "coordinates": [-39.2917126, -14.8157813]}},{"text": "M'voyez ? http://t.co/KWPqcgHiec", "created_at": "2013-04-12T19:41:00", "screen_name": "Clara_Lflc", "coordinates": {"type": "Point", "coordinates": [2.31432628, 48.81487722]}},{"text": "Stand by me!", "created_at": "2013-04-12T19:41:01", "screen_name": "davidgamon23", "coordinates": {"type": "Point", "coordinates": [-55.86273, -27.32769]}},{"text": "Son mis perros yo vere a quien de los echo ..", "created_at": "2013-04-12T19:41:01", "screen_name": "Juanpablobeta10", "coordinates": {"type": "Point", "coordinates": [-75.69645046, 4.80610588]}},{"text": "I'm at Emirsultan (Bursa) w/ 2 others http://t.co/Ei6PO6uEfi", "created_at": "2013-04-12T19:41:03", "screen_name": "mrvozlem", "coordinates": {"type": "Point", "coordinates": [29.08148918, 40.18102865]}},{"text": "@DylanHoey2 just give some random car the finger yeah .. Where were you going ?", "created_at": "2013-04-12T19:41:03", "screen_name": "DeirdreBehan", "coordinates": {"type": "Point", "coordinates": [-6.35703342, 53.37551297]}},{"text": "@itsgrumpycatt Follow @jesstetrick, it would seriously make her #lifecomplete, she deserves it more than me...", "created_at": "2013-04-12T19:41:03", "screen_name": "_curtcollins", "coordinates": {"type": "Point", "coordinates": [-82.83150438, 36.16229283]}},{"text": "i'm so #teamskream xxxx", "created_at": "2013-04-12T19:41:08", "screen_name": "c_besc", "coordinates": {"type": "Point", "coordinates": [-2.32361509, 53.01945806]}},{"text": "Eric wants to get weirrrrrrrd", "created_at": "2013-04-12T19:41:09", "screen_name": "_CjCarroll", "coordinates": {"type": "Point", "coordinates": [-77.50971848, 38.07775891]}},{"text": "@maxbiaggi buon viaggio Max ti aspetto al microfono hihihi", "created_at": "2013-04-12T19:41:09", "screen_name": "sergiofonti3", "coordinates": {"type": "Point", "coordinates": [12.6410001, 41.9712697]}},{"text": "unless you cute, or you seem chill to me.", "created_at": "2013-04-12T19:41:11", "screen_name": "_ItsLesleyyyy_", "coordinates": {"type": "Point", "coordinates": [-84.38513272, 33.80360994]}},{"text": "in bed by 9 on a friday \ud83d\ude11", "created_at": "2013-04-12T19:41:11", "screen_name": "GemmaC1994", "coordinates": {"type": "Point", "coordinates": [-3.14535166, 51.69207692]}},{"text": "@ZUZUNOVAA yemin ettt", "created_at": "2013-04-12T19:41:13", "screen_name": "MrMertEren", "coordinates": {"type": "Point", "coordinates": [-0.0306102, 51.6712058]}},{"text": "\u201c@Allybrown0330: 0 tweets\n0 followers\n0 following \n\n\ud83c\udd97\u201d sammmmmeee", "created_at": "2013-04-12T19:41:14", "screen_name": "chasekmartin", "coordinates": {"type": "Point", "coordinates": [-96.5789702, 33.09460999]}},{"text": "@__Sheaa thanks lol", "created_at": "2013-04-12T19:41:15", "screen_name": "DatNiggaDeonte", "coordinates": {"type": "Point", "coordinates": [-80.2542516, 34.2114581]}},{"text": "\"@matwilson6: @g_mccray Have to get them an assessment first   http://t.co/dyarMDK9L9\" rt why waste good money on something we already know!", "created_at": "2013-04-12T19:41:15", "screen_name": "g_mccray", "coordinates": {"type": "Point", "coordinates": [-75.13318101, 40.13245481]}},{"text": "#panhellenic#forensics#association#tournament#participant#budge#duet#acting#anatolia#college#duet#actor\u2026 http://t.co/K6ukIkNTNF", "created_at": "2013-04-12T19:41:15", "screen_name": "JohnGogos1997", "coordinates": {"type": "Point", "coordinates": [23.00270855, 40.59808987]}},{"text": "@xxcataloniixx Lesh enta meen 3shan t7kele la tkalmha ? 2olle enta men w 7swelha block msh bs ma 7klmha ?", "created_at": "2013-04-12T19:41:17", "screen_name": "FadiTamer98", "coordinates": {"type": "Point", "coordinates": [48.0414128, 29.340508]}},{"text": "Does Brittany have a prom dress yet", "created_at": "2013-04-12T19:41:17", "screen_name": "icAUSTalot", "coordinates": {"type": "Point", "coordinates": [-75.07822274, 40.03197438]}},{"text": "@Jaolingwong24 @SulayW hahahahaha muaxxxxx", "created_at": "2013-04-12T19:41:17", "screen_name": "narinder_07", "coordinates": {"type": "Point", "coordinates": [-82.4141903, 8.4315022]}},{"text": "-\u00bfY mis #FF?\n-\u00bfY mis Besos?", "created_at": "2013-04-12T19:41:18", "screen_name": "Sir_Parafraseo", "coordinates": {"type": "Point", "coordinates": [-99.01623068, 19.62957519]}},{"text": "@Harry_Styles.. Me encanta tu profunda voz..", "created_at": "2013-04-12T19:41:20", "screen_name": "AnaLBompart", "coordinates": {"type": "Point", "coordinates": [-64.63341, 10.22102]}},{"text": "3 hours left *fly* #Dublin", "created_at": "2013-04-12T19:41:21", "screen_name": "fa6omaYK", "coordinates": {"type": "Point", "coordinates": [48.027326, 29.321102]}},{"text": "@kidrauhl_isHero lauraa_ashley_", "created_at": "2013-04-12T19:41:21", "screen_name": "LauraGuido3", "coordinates": {"type": "Point", "coordinates": [-80.4431694, 25.6332432]}},{"text": "MOOD @ Se Puede @ Se Puede http://t.co/2Pohz8BEeE", "created_at": "2013-04-12T19:41:22", "screen_name": "78Ivano", "coordinates": {"type": "Point", "coordinates": [9.70397472, 45.42588029]}},{"text": "Cbaaaaaa #ineedsummer", "created_at": "2013-04-12T19:41:22", "screen_name": "daniatkinson77", "coordinates": {"type": "Point", "coordinates": [-1.5955407, 53.8264606]}},{"text": "at work early gonna be here til like 1:30 maybe 2am", "created_at": "2013-04-12T19:41:23", "screen_name": "ThatManFern", "coordinates": {"type": "Point", "coordinates": [-84.61086147, 42.74056219]}},{"text": "@roberto_balda el Roberto solo sirve para amenazas (dame gomitad yo se q tienes! )", "created_at": "2013-04-12T19:41:23", "screen_name": "cristinayepez", "coordinates": {"type": "Point", "coordinates": [-79.9633882, -2.1939802]}},{"text": "#\u043f\u0440\u043e\u0441\u0442\u0430\u044f", "created_at": "2013-04-12T19:41:25", "screen_name": "Kavaika_13", "coordinates": {"type": "Point", "coordinates": [37.52275354, 55.80763523]}},{"text": "Awww Lloro no Me Sirve El Pin    :'(", "created_at": "2013-04-12T19:41:26", "screen_name": "012_astrid", "coordinates": {"type": "Point", "coordinates": [-75.14173097, 4.44656194]}},{"text": "How the fuck am I supposed to take notes when professors fly through slides faster than I can blink?! \nLike da fuq. Slow down bitch.", "created_at": "2013-04-12T19:41:26", "screen_name": "tg_cal", "coordinates": {"type": "Point", "coordinates": [-121.75574377, 38.53935586]}},{"text": "I'm at Mariscos El Tostache http://t.co/3Cie2iLcTN", "created_at": "2013-04-12T19:41:27", "screen_name": "hcoutino", "coordinates": {"type": "Point", "coordinates": [-103.436511, 20.677106]}},{"text": "@Juanpachanga4 q asco pixa, anda y cogete una hinchable q te hace falta maqina", "created_at": "2013-04-12T19:41:28", "screen_name": "Fran7R", "coordinates": {"type": "Point", "coordinates": [-6.3337984, 36.7846535]}},{"text": "Juuupeeer, yoo quiero :(", "created_at": "2013-04-12T19:41:28", "screen_name": "Carmenramos07", "coordinates": {"type": "Point", "coordinates": [-5.9587951, 37.3848433]}},{"text": "@flaloutboy I forgot to check my privilege sorry", "created_at": "2013-04-12T19:41:29", "screen_name": "MattTheMajestic", "coordinates": {"type": "Point", "coordinates": [-74.85500822, 39.92095279]}},{"text": "Thanks to whoever signed me up for daily bible texts \ud83d\ude07\ud83d\ude4f (carolineandbella) http://t.co/9iwMkefaQg", "created_at": "2013-04-12T19:41:29", "screen_name": "meldasilva9", "coordinates": {"type": "Point", "coordinates": [-71.27015909, 41.7260655]}},{"text": "Was here no luck! (@ B &amp; B Auto Parts) http://t.co/sthHIsA7c6", "created_at": "2013-04-12T19:41:30", "screen_name": "seannc11", "coordinates": {"type": "Point", "coordinates": [-78.964639, 35.084958]}},{"text": "Faut j'garde ma batterie pr sortir dehors apres", "created_at": "2013-04-12T19:41:31", "screen_name": "Stanley_Brazi", "coordinates": {"type": "Point", "coordinates": [2.5546, 48.83826]}},{"text": "She gimme love love love love love love foreverrrrrr", "created_at": "2013-04-12T19:41:32", "screen_name": "_WhyTheyMadd", "coordinates": {"type": "Point", "coordinates": [-60.9213444, 13.8174308]}},{"text": "Literally despise these automatic light timers. Rather just stand in darkness than continue to press the light switch every 30 seconds \ud83d\udc4a", "created_at": "2013-04-12T19:41:33", "screen_name": "katywallaceryan", "coordinates": {"type": "Point", "coordinates": [-3.67246467, 40.44382389]}},{"text": "@KarismatikKenza c'est quand ta session kik? :D\u2665", "created_at": "2013-04-12T19:41:34", "screen_name": "ArzuAlabay", "coordinates": {"type": "Point", "coordinates": [-0.54987125, 44.8462175]}},{"text": "I'm at High-Fun (Ankara, T\u00fcrkiye) w/ 5 others http://t.co/PYdIYgpUC0", "created_at": "2013-04-12T19:41:35", "screen_name": "merveturkogulla", "coordinates": {"type": "Point", "coordinates": [32.7557102, 39.85712343]}},{"text": "Why can't phones charge themselves its 2013 fgs", "created_at": "2013-04-12T19:41:35", "screen_name": "AlexCartwrightt", "coordinates": {"type": "Point", "coordinates": [-1.31594153, 54.61126995]}},{"text": "@anacastelli jaaja si pero tampoco taaaantp", "created_at": "2013-04-12T19:41:36", "screen_name": "AndreMoscoloni", "coordinates": {"type": "Point", "coordinates": [-60.6450694, -32.946246]}},{"text": "Waktunya Tidur (@ Heroe Home) http://t.co/zoGI2gqUQ8", "created_at": "2013-04-12T19:41:41", "screen_name": "heroe_mxrc", "coordinates": {"type": "Point", "coordinates": [124.29216371, -9.86249649]}},{"text": "@_Zah_buckz niggas just be hating", "created_at": "2013-04-12T19:41:41", "screen_name": "Ysl__Roc", "coordinates": {"type": "Point", "coordinates": [-75.15445811, 40.04931332]}},{"text": "Si", "created_at": "2013-04-12T19:41:42", "screen_name": "alezhiita_bexa", "coordinates": {"type": "Point", "coordinates": [-91.51539, 14.83314]}},{"text": "Only I would spill a whole glass of soda in my lap at Red Robin while I am getting out of the booth #great #stickyshoes #drpepper #ohwell", "created_at": "2013-04-12T19:41:44", "screen_name": "ashl3yy_nichol3", "coordinates": {"type": "Point", "coordinates": [-119.68250814, 36.82334754]}},{"text": "@kirstydawson90 Nathan's on blag.. crying coz he's stood on his\nlaptop screen... bore off", "created_at": "2013-04-12T19:41:45", "screen_name": "ryannheath", "coordinates": {"type": "Point", "coordinates": [-1.19131011, 53.57148987]}},{"text": "@ShannernX aw aren't u lovely x", "created_at": "2013-04-12T19:41:45", "screen_name": "BethEasty", "coordinates": {"type": "Point", "coordinates": [-2.66152675, 53.77999726]}},{"text": "@roxth8 Ammm y si hacemos un rompecabezas XD", "created_at": "2013-04-12T19:41:48", "screen_name": "Gabriella1o", "coordinates": {"type": "Point", "coordinates": [-76.9803735, -12.1325977]}},{"text": "#ThereIsADifferenceBetween being real and acting real!", "created_at": "2013-04-12T19:41:48", "screen_name": "tlbjr23", "coordinates": {"type": "Point", "coordinates": [-97.38018142, 41.47559869]}},{"text": "ma che si fa il 26 quindi", "created_at": "2013-04-12T19:41:51", "screen_name": "bringmecloser_", "coordinates": {"type": "Point", "coordinates": [12.621267, 41.5000878]}},{"text": "@Biidjan @KhloeDisasi je croire c son taf hein!", "created_at": "2013-04-12T19:41:51", "screen_name": "Fraakos", "coordinates": {"type": "Point", "coordinates": [2.4537717, 48.6988783]}},{"text": "Que ascoo hay medusas en la playa la victoria de cadiiz", "created_at": "2013-04-12T19:41:52", "screen_name": "NazaretAB", "coordinates": {"type": "Point", "coordinates": [-6.2099769, 36.4574239]}},{"text": "@mhtsosz \u03c0\u03ac\u03bd\u03c4\u03b1!!!!", "created_at": "2013-04-12T19:41:53", "screen_name": "themarianetta", "coordinates": {"type": "Point", "coordinates": [23.7252423, 37.97805817]}},{"text": "Baba Yetu is one of those songs that just give you an energized feeling inside.", "created_at": "2013-04-12T19:41:55", "screen_name": "ashleyytaaylor", "coordinates": {"type": "Point", "coordinates": [-73.0725998, 40.8501341]}},{"text": "It's #COACHELLA @ GBK! @exposedpr @TrendyTruck ... Girls.. U LOOK MARVELOUS! #greenbarkitchen @ Green\u2026 http://t.co/pYFMvOsG7h", "created_at": "2013-04-12T19:42:05", "screen_name": "greenbarkitch", "coordinates": {"type": "Point", "coordinates": [-80.13216376, 26.10104345]}},{"text": "Nice. RT\"@soccerguy712712: @MsMittensxo ok http://t.co/FzGVjfNE5p\"", "created_at": "2013-04-12T19:42:05", "screen_name": "MsMittensxo", "coordinates": {"type": "Point", "coordinates": [-84.50836175, 42.73703194]}},{"text": "Their going to start sitting us by class at lunch.", "created_at": "2013-04-12T19:42:05", "screen_name": "_nadiadb", "coordinates": {"type": "Point", "coordinates": [-84.48019932, 33.51907568]}},{"text": "@KinsandBarbie ew", "created_at": "2013-04-12T19:42:05", "screen_name": "mattteps", "coordinates": {"type": "Point", "coordinates": [-80.30823858, 27.18314166]}},{"text": "I'm at Dental Sa\u00fade (Ananindeua, PA) http://t.co/PFsvGUXh0C", "created_at": "2013-04-12T19:42:06", "screen_name": "Debora_doCouto", "coordinates": {"type": "Point", "coordinates": [-48.412464, -1.37529544]}},{"text": "Biar Allah yang tentukan segalanya2... Nite2... :)", "created_at": "2013-04-12T19:42:06", "screen_name": "rasyidarasid89", "coordinates": {"type": "Point", "coordinates": [101.6807063, 2.9443571]}},{"text": "I'm at Bairro Centro Norte (Cuiab\u00e1, MT) http://t.co/TKc3eXtz2X", "created_at": "2013-04-12T19:42:09", "screen_name": "_DiogoBandeira", "coordinates": {"type": "Point", "coordinates": [-56.09414655, -15.59607121]}},{"text": "MUORO. http://t.co/spXCzyOdbR\"", "created_at": "2013-04-12T19:42:11", "screen_name": "marco63307847", "coordinates": {"type": "Point", "coordinates": [12.62101747, 41.87094598]}},{"text": "@evil_archangel I haven't seen update for tumblr for my phone in last days :p", "created_at": "2013-04-12T19:42:13", "screen_name": "lustlovefaith", "coordinates": {"type": "Point", "coordinates": [17.10417874, 54.47064047]}},{"text": "El Senado trabaja lo de115 millones, este atraviesa a M\u00e9jico,v\u00e9ase Espa\u00f1a con 52% parados,vernos en el mismo espejoSoberaniaEnManosDeOtros", "created_at": "2013-04-12T19:42:14", "screen_name": "LaEraLera", "coordinates": {"type": "Point", "coordinates": [-99.26475309, 19.48152336]}},{"text": "swag swag swag on you", "created_at": "2013-04-12T19:42:14", "screen_name": "_ferpereira", "coordinates": {"type": "Point", "coordinates": [-47.4011778, -22.5554648]}},{"text": "Me faltaron razones, me sobraron motivos.", "created_at": "2013-04-12T19:42:15", "screen_name": "13_verito", "coordinates": {"type": "Point", "coordinates": [-3.5781826, 36.7486403]}},{"text": "New #PP , en attendant l'\u00e9t\u00e9 , on s'habille bien a l'int\u00e9rieur le temps d'une photo \ud83d\udc4d", "created_at": "2013-04-12T19:42:19", "screen_name": "DjeBaby", "coordinates": {"type": "Point", "coordinates": [2.58605494, 48.8480558]}},{"text": "Tonight I'ma go out with @menendez_pelayo and friends. This brings me back memories from first year at college #DamnOldMemories", "created_at": "2013-04-12T19:42:22", "screen_name": "meresdavid", "coordinates": {"type": "Point", "coordinates": [-3.7981237, 43.4733636]}},{"text": "@Nescafesinleche yo", "created_at": "2013-04-12T19:42:23", "screen_name": "pirricastillo", "coordinates": {"type": "Point", "coordinates": [-71.59435442, 10.67503055]}},{"text": "\"@MeliaMcintosh: @ChuckyGordon I luv da video #ineva Lolzzzz :-)\" yip full vibes", "created_at": "2013-04-12T19:42:23", "screen_name": "ChuckyGordon", "coordinates": {"type": "Point", "coordinates": [-61.4090899, 10.5296232]}},{"text": "@luzriquel11 te dejaron?", "created_at": "2013-04-12T19:42:26", "screen_name": "martinagerpe", "coordinates": {"type": "Point", "coordinates": [-58.52383245, -34.71366235]}},{"text": "I'm at Jk Malmejo (Malle, Antwerpen) w/ 5 others http://t.co/bGdLC1IRmS", "created_at": "2013-04-12T19:42:29", "screen_name": "jenteboyen", "coordinates": {"type": "Point", "coordinates": [4.73475539, 51.29975897]}},{"text": "\u201c@LucasMendes972: Quand Terry parle de Lacrim je rigolais mais enfete il est grave fort\u201d. MEEEERCI", "created_at": "2013-04-12T19:42:30", "screen_name": "Terry_Aubame", "coordinates": {"type": "Point", "coordinates": [2.44707047, 48.78751844]}},{"text": "@wshkina uy que genio!! No aguantas ni una broma!!! Sentida", "created_at": "2013-04-12T19:42:31", "screen_name": "JuliusHedi", "coordinates": {"type": "Point", "coordinates": [-93.108848, 16.7512947]}},{"text": "I'm at La Cantina Del 308 http://t.co/aJ9DyIFjTJ", "created_at": "2013-04-12T19:42:32", "screen_name": "A_CortesR", "coordinates": {"type": "Point", "coordinates": [-71.61393481, -33.04999726]}},{"text": "Off work. IM READY TO RAAAAGE!", "created_at": "2013-04-12T19:42:36", "screen_name": "ohh_laur09", "coordinates": {"type": "Point", "coordinates": [-96.10934914, 41.21177346]}},{"text": "I'm at H.AlMahari Resident http://t.co/U3cGx3fywM", "created_at": "2013-04-12T19:42:36", "screen_name": "HamedAlMahari", "coordinates": {"type": "Point", "coordinates": [50.50703049, 26.15688515]}},{"text": "LAS AMO AMiGAS. @KarlaaMesias @gaby_justme #Sidny http://t.co/XlOW6DtQAq", "created_at": "2013-04-12T19:42:36", "screen_name": "aprol25", "coordinates": {"type": "Point", "coordinates": [-99.17749377, 19.46948975]}},{"text": "Buen\u00edsimo Mill\u00e1s:\u201cEmpresa y pa\u00eds\u201dLa marca Espa\u00f1a cerr\u00f3 hace tiempo el servicio de atenci\u00f3n al cliente http://t.co/lre0SO0Cwt", "created_at": "2013-04-12T20:40:03", "screen_name": "juandepca", "coordinates": {"type": "Point", "coordinates": [-5.9871478, 37.4148173]}},{"text": "Haha wow everyone from school is going to the pirate game tonight!", "created_at": "2013-04-12T20:40:03", "screen_name": "ASAP_Turzak12", "coordinates": {"type": "Point", "coordinates": [-79.98455258, 40.38569445]}},{"text": "@OhhMy_Alejandra Wax Hits Or Whats Up Lol", "created_at": "2013-04-12T20:40:04", "screen_name": "RuthlessBen", "coordinates": {"type": "Point", "coordinates": [-117.9610747, 33.9224664]}},{"text": "@j_cy1221 \u304b\u306a\u5927\u4e08\u592b\u3084\u3063\u305f\uff1f", "created_at": "2013-04-12T20:40:05", "screen_name": "yuriaaaaa59", "coordinates": {"type": "Point", "coordinates": [135.3650161, 34.3983063]}},{"text": "@munkgirl27 cool ;)", "created_at": "2013-04-12T20:40:06", "screen_name": "Kyleestyles15", "coordinates": {"type": "Point", "coordinates": [-82.0281005, 28.12478545]}},{"text": "Elm\u0131naam b\u0131zdee kal\u0131yoo", "created_at": "2013-04-12T20:40:06", "screen_name": "ozgeyedikardes", "coordinates": {"type": "Point", "coordinates": [0.0, 0.0]}},{"text": "I love grilled cheese", "created_at": "2013-04-12T20:40:06", "screen_name": "ryhamner", "coordinates": {"type": "Point", "coordinates": [-93.14079972, 44.91438544]}},{"text": "It ain't like I ain't use to it.", "created_at": "2013-04-12T20:40:07", "screen_name": "str8tooreal_17", "coordinates": {"type": "Point", "coordinates": [-82.1593963, 34.1705517]}},{"text": "\u95a2\u897f\u7d44\uff01", "created_at": "2013-04-12T20:40:07", "screen_name": "Ataro1002", "coordinates": {"type": "Point", "coordinates": [139.63536962, 35.77799341]}},{"text": "I'm at Mermertas 1 Sahil http://t.co/do3QrD1lXY", "created_at": "2013-04-12T20:40:07", "screen_name": "boynuduz", "coordinates": {"type": "Point", "coordinates": [28.4651506, 41.02533527]}},{"text": "Nossa ia gostar mt se alguma das minhas amigas me respondessem", "created_at": "2013-04-12T20:40:09", "screen_name": "juliabna", "coordinates": {"type": "Point", "coordinates": [-49.30166336, -16.73723683]}},{"text": "A casa monstro &lt;3", "created_at": "2013-04-12T20:40:10", "screen_name": "FUMEINESCAU_", "coordinates": {"type": "Point", "coordinates": [-48.7908878, -26.3524194]}},{"text": "@cdineen31 #townofhempstead lol wish I could", "created_at": "2013-04-12T20:40:10", "screen_name": "pdonlon", "coordinates": {"type": "Point", "coordinates": [-73.57627773, 40.65409432]}},{"text": "lmao bestfriend come get meeee ! @yungn1013", "created_at": "2013-04-12T20:40:11", "screen_name": "__xThaaBomb", "coordinates": {"type": "Point", "coordinates": [-86.9001282, 35.7582223]}},{"text": "enfim , minha irm\u00e3 chego, \u00e9", "created_at": "2013-04-12T20:40:11", "screen_name": "SereiiaMorena", "coordinates": {"type": "Point", "coordinates": [-51.4871684, -29.160496]}},{"text": "ON SE CONNAIT", "created_at": "2013-04-12T20:40:11", "screen_name": "AntonyLeBavard", "coordinates": {"type": "Point", "coordinates": [7.29291944, 46.22309385]}},{"text": "@Amandaseabra1 que ta feio ou que parecia com o seu ?", "created_at": "2013-04-12T20:40:14", "screen_name": "BrunnoMedeiros3", "coordinates": {"type": "Point", "coordinates": [-44.1339289, -22.5072921]}},{"text": "Po nada... Vamo q nos vamoooooo!! Jajajajaja enga ahora s\u00ed, a x el cuarto...!! Dicen q nunca se rinde.....(8)", "created_at": "2013-04-12T20:40:16", "screen_name": "LianSilvia", "coordinates": {"type": "Point", "coordinates": [-5.27876615, 37.6958403]}},{"text": "Ainda bem que tem o fds pra ver minha linda e da uma esfriada na cabe\u00e7a", "created_at": "2013-04-12T20:40:16", "screen_name": "leeoisrael", "coordinates": {"type": "Point", "coordinates": [-53.4636779, -24.9629257]}},{"text": "Demet Akalin tavus kusuna ozenmis", "created_at": "2013-04-12T20:40:16", "screen_name": "AynurBBCN", "coordinates": {"type": "Point", "coordinates": [28.8493149, 40.2267098]}},{"text": "@NHLHUT If I want to trade for a Gaborik &amp; I offer SOTW Hodgson and Kronwall. How many pucks would I need?", "created_at": "2013-04-12T20:40:17", "screen_name": "HUT_Trader", "coordinates": {"type": "Point", "coordinates": [-79.96345399, 40.33481027]}},{"text": "#sanfrancisco is so beautiful! #segwaytour was amazing and now enjoying an #irishcoffee in #thebuenavista http://t.co/JRmTM7BTNQ", "created_at": "2013-04-12T20:40:17", "screen_name": "Tobilicious1986", "coordinates": {"type": "Point", "coordinates": [-122.4210129, 37.8068231]}},{"text": "Just posted a photo @ KaVe http://t.co/3i5G9GU0Ep", "created_at": "2013-04-12T20:40:18", "screen_name": "jeremy_glass", "coordinates": {"type": "Point", "coordinates": [28.97414221, 41.02882913]}},{"text": "Worst thing about driving Bennis car is going over speed bumps because its hardly off the floor! #hatespeedbumps", "created_at": "2013-04-12T20:40:19", "screen_name": "Dancer_Nina", "coordinates": {"type": "Point", "coordinates": [-2.23296818, 52.18734645]}},{"text": "Es rapidicimo a comparacion del mio", "created_at": "2013-04-12T20:40:20", "screen_name": "ElLulo", "coordinates": {"type": "Point", "coordinates": [-60.56827, -33.89429]}},{"text": "A mi pisito.", "created_at": "2013-04-12T20:40:21", "screen_name": "Ana98b", "coordinates": {"type": "Point", "coordinates": [-3.9518241, 37.7636129]}},{"text": "I'm at Kaya's home http://t.co/9IxL8pLZK9", "created_at": "2013-04-12T20:40:23", "screen_name": "tgbfthclk", "coordinates": {"type": "Point", "coordinates": [30.67104547, 41.10245722]}},{"text": "Dsl j'avais pas vu que tu m'avais r\u00e9pondu :s", "created_at": "2013-04-12T20:40:24", "screen_name": "BabyValentiina", "coordinates": {"type": "Point", "coordinates": [2.46143645, 48.61887415]}},{"text": "Dang!", "created_at": "2013-04-12T20:40:25", "screen_name": "christadlock32", "coordinates": {"type": "Point", "coordinates": [-95.7552729, 34.9009546]}},{"text": "We think about all of our tomorrows, but we don't know how many they are, so let's start making the most of our Todays!", "created_at": "2013-04-12T20:40:26", "screen_name": "Eng_Sultan7", "coordinates": {"type": "Point", "coordinates": [55.3608462, 25.2493995]}},{"text": "\u0644\u0627 \u062a\u0633\u0623\u0644 \u0646\u0641\u0633\u0643 \u0625\u0646 \u0643\u0627\u0646 \u064a\u0647\u062a\u0645 \u0628\u0643 \u0623\u0645 \u064a\u062a\u0638\u0627\u0647\u0631 \u0628\u0627\u0644\u0625\u0647\u062a\u0645\u0627\u0645\u060c \u0625\u0646 \u0643\u0627\u0646 \u064a\u062a\u0638\u0627\u0647\u0631 \u0641\u0647\u0648 \u064a\u0647\u062a\u0645.", "created_at": "2013-04-12T20:40:27", "screen_name": "hzoone44", "coordinates": {"type": "Point", "coordinates": [44.01976, 26.30569]}},{"text": "\u0647\u0644 \u062a\u0639\u0644\u0645 \u0639\u0646\u062f\u0645\u0627 \u064a\u0628\u0643\u064a \u0627\u0644\u0627\u0646\u0633\u0627\u0646 \u0645\u0627\u0630\u0627 \u064a\u062e\u0631\u062c \u0645\u0646 \u0639\u064a\u0646\u0647 \u061f \u062e\u0637\u0623 \u0645\u0648\u0628 \u0627\u0644\u062f\u0645\u0639\u0647 \u060c \u064a\u062e\u0631\u062c N70 !  \u0647\u0647\u0647\u0647\u0647\u0647\u0647\u0647\u0647\u0647\u0647\u0647\u0647\u0647\u0647\u0647\u0647\u0647\u0647\u0647\u0647\u0647\u0647\u0647\u0647\u0647\u0647\u0647\u0647\u0647\u0647\u0647\u0647\u0647\u0647\u0647\u0647\u0647\u0647\u0647 \u064a\u0627\u062e\u064a \u0648\u0628\u0639\u062f\u064a\u0646 \u0645\u0639\u064a\n#\u0633\u0645\u0627\u062c\u0629", "created_at": "2013-04-12T20:40:28", "screen_name": "iNayO0Of", "coordinates": {"type": "Point", "coordinates": [47.1339326, 23.98676254]}},{"text": "@EmilieLgz oh la garce!!! Je veux voir je veux voir :p", "created_at": "2013-04-12T20:40:28", "screen_name": "MaudeLardinois", "coordinates": {"type": "Point", "coordinates": [-2.38044925, 47.30286024]}},{"text": "I'm at Edamame (Irvine, CA) http://t.co/fSk12auUJE", "created_at": "2013-04-12T20:40:30", "screen_name": "Kbadkins71", "coordinates": {"type": "Point", "coordinates": [-117.74920865, 33.66685152]}},{"text": "\u63fa\u308c\u305f\u3041\u3001\u3001\u3001\u3068\u308a\u3042\u3048\u305a\u6d25\u6ce2\u306f\u5927\u4e08\u592b\u307f\u305f\u3044\u3060\u304c\u3002", "created_at": "2013-04-12T20:40:31", "screen_name": "yamakasi1102", "coordinates": {"type": "Point", "coordinates": [135.46409339, 34.71025277]}},{"text": "Surpresa pro Mazzaro!! \ud83c\udf89\ud83c\udf81\ud83c\udf5f\ud83c\udf54 anaclaraclimaco adeliacajuhy arielcosta mariaacarol danielsbemerguy @\u2026 http://t.co/QUxT6sBJ9Q", "created_at": "2013-04-12T20:40:33", "screen_name": "jotapecruz", "coordinates": {"type": "Point", "coordinates": [-60.04404473, -3.08001161]}},{"text": "@MiaKat_ I didn't sleep with anyone and there was much worse girls than me I'm really not assed :) people are quick to judge", "created_at": "2013-04-12T20:40:33", "screen_name": "JemmaChadwick92", "coordinates": {"type": "Point", "coordinates": [-1.61142742, 53.81610693]}},{"text": "To morrendo.", "created_at": "2013-04-12T20:40:33", "screen_name": "mayfiorelinne", "coordinates": {"type": "Point", "coordinates": [-46.5412486, -22.9459956]}},{"text": "@", "created_at": "2013-04-12T20:40:35", "screen_name": "Jack68Williams", "coordinates": {"type": "Point", "coordinates": [-79.4962501, 36.10869167]}},{"text": "@MarshallDavis64 what did I do!!??", "created_at": "2013-04-12T20:40:41", "screen_name": "vanilllest", "coordinates": {"type": "Point", "coordinates": [-122.9392913, 44.0488798]}},{"text": "@MGM Ultimate Finale Weigh ins.", "created_at": "2013-04-12T20:40:46", "screen_name": "RAOVmmaRadio", "coordinates": {"type": "Point", "coordinates": [-115.16966, 36.10315]}},{"text": "Lol\"@roziedizzle: Y r u saying Rabi has toothpick legs na?\"@gohidey22: Bet Rabi is d opp of Joy na!!\"@roziedizzle: Ohoho\"@gohidey22: Lmao.", "created_at": "2013-04-12T20:40:51", "screen_name": "JessydDiva", "coordinates": {"type": "Point", "coordinates": [8.52693, 7.71782]}},{"text": "@Arkell8jones @Touchbaddazz @Jeydaley MIGHT I AM LOL I FEEL UNCOMFORTABLE THEN A MF BACK HERE LOL", "created_at": "2013-04-12T20:40:53", "screen_name": "RevelleGavin", "coordinates": {"type": "Point", "coordinates": [-82.7441948, 28.12353]}},{"text": "@Dre_Babyyy jolly ranchers read RIP cuz it's piece they rest in", "created_at": "2013-04-12T20:40:53", "screen_name": "blackpeopl3", "coordinates": {"type": "Point", "coordinates": [-88.2313502, 41.5162852]}},{"text": "\u0430? http://t.co/iMLkKrbXnB", "created_at": "2013-04-12T20:40:55", "screen_name": "HeyAmbridg", "coordinates": {"type": "Point", "coordinates": [30.30682358, 59.87047467]}},{"text": "@Deshy856 luego que voy a cenar", "created_at": "2013-04-12T20:40:57", "screen_name": "EndikaKimiKaze", "coordinates": {"type": "Point", "coordinates": [-4.51101168, 41.96923608]}},{"text": "Sin complejos valladolid viernes 22:30h en la 8 TV valladolid", "created_at": "2013-04-12T20:40:58", "screen_name": "SinComplejosTV", "coordinates": {"type": "Point", "coordinates": [-4.73760077, 41.65468369]}},{"text": "I'm at Manaus Plaza Shopping - @manausplazashop (Manaus, AM) w/ 5 others http://t.co/WuL44yNC8s", "created_at": "2013-04-12T20:40:58", "screen_name": "mateusmaia_", "coordinates": {"type": "Point", "coordinates": [-60.02363205, -3.09757863]}},{"text": "\u4eca\u306e\u63fa\u308c\u3067\u962a\u795e\u6de1\u8def\u5927\u9707\u707d\u601d\u3044\u51fa\u3057\u305f\u3057\uff01\uff01\u672c\u9593\u306b\u3053\u308f\u304b\u3063\u305f\uff01\u3053\u308f\u304f\u3066\u5538\u3063\u3066\u3057\u307e\u3063\u305f\u3084\u3093www", "created_at": "2013-04-12T20:40:58", "screen_name": "maripesu629", "coordinates": {"type": "Point", "coordinates": [135.3594898, 34.7483158]}},{"text": "Onibus saia logo vai", "created_at": "2013-04-12T20:41:00", "screen_name": "_thathalopes", "coordinates": {"type": "Point", "coordinates": [-46.4657966, -23.6649631]}},{"text": "Hieer ya une goe a mstop a mdis tu sort ac qui tooi jdis personne a mdis tu ment tu crooit jsai pas jdis tfolle tooi wllh personne 1/2", "created_at": "2013-04-12T20:41:01", "screen_name": "_Bolo78", "coordinates": {"type": "Point", "coordinates": [1.1728526, 49.02896822]}},{"text": "Haha nice whos android got screen shot, this guy do", "created_at": "2013-04-12T20:41:02", "screen_name": "DeAllas9", "coordinates": {"type": "Point", "coordinates": [-77.52433212, 38.75391404]}},{"text": "L\u00edvia Marine??? #salvejorge \"@folha_com: Turquia desmantela grupo ligado \u00e0 Al Qaeda que planejava ataques no pa\u00eds. http://t.co/baxYv3Ls4U\"", "created_at": "2013-04-12T20:41:03", "screen_name": "ernanedantas", "coordinates": {"type": "Point", "coordinates": [-43.19259785, -22.97693783]}},{"text": "@shoko24xx \u3081\u3063\u3061\u3083\u63fa\u308c\u305f\u3088\u306a\u3042(\u3002&gt;\u0434&lt;)", "created_at": "2013-04-12T20:41:06", "screen_name": "yuriaaaaa59", "coordinates": {"type": "Point", "coordinates": [135.3650161, 34.3983063]}},{"text": "@copedogg7 y??", "created_at": "2013-04-12T20:41:06", "screen_name": "Dymps_Moane", "coordinates": {"type": "Point", "coordinates": [-7.30799462, 54.29812546]}},{"text": "iPhone\u3063\u3066\u3084\u3063\u3071\u4f7f\u3048\u308b\u306a\u3002\u5730\u9707\u8b66\u5831\u3059\u3054\u3044\u3002\n\n\u307f\u3093\u306a\u5927\u4e08\u592b\u3084\u3063\u305f\uff1f\n\n\u30e1\u30c3\u30c1\u30e3\u63fa\u308c\u3066\u6016\u304b\u3063\u305f\u30fc\u3002", "created_at": "2013-04-12T20:41:07", "screen_name": "aikopurio", "coordinates": {"type": "Point", "coordinates": [135.44584365, 34.74948891]}},{"text": "\u0643\u0644 \u0645\u0646 \u0633\u0623\u0644 \u0642\u0644\u062a \u0645\u0627\u0628\u0647 \u0634\u064a \u062d\u0635\u0644 ..", "created_at": "2013-04-12T20:41:07", "screen_name": "Aalshammari94", "coordinates": {"type": "Point", "coordinates": [50.11192758, 26.40486287]}},{"text": "33-21, a seguir asi tias!", "created_at": "2013-04-12T20:41:08", "screen_name": "Sofiasanchez_9", "coordinates": {"type": "Point", "coordinates": [-3.6403706, 40.5426387]}},{"text": "You are the music in me", "created_at": "2013-04-12T20:41:09", "screen_name": "bellaschwartz", "coordinates": {"type": "Point", "coordinates": [-89.93493371, 38.48718078]}},{"text": "Rid\u00edculo eu diria, vai deixa o cachorro caminha sozinho e felizzz", "created_at": "2013-04-12T20:41:11", "screen_name": "fernandaminca", "coordinates": {"type": "Point", "coordinates": [-51.2039925, -30.02013643]}},{"text": "@nichiko0213 \u3048\u3048\u304b\u306a\u7b11 \u3067\u3082\u307b\u3093\u307e\u306b\u6b7b\u306c\u304b\u601d\u3063\u305f\u308f\uff01", "created_at": "2013-04-12T20:41:13", "screen_name": "ayane118", "coordinates": {"type": "Point", "coordinates": [135.23243917, 34.7336004]}},{"text": "@AGomizGDLLOPIS a mi no me digas oc eh cabron, suerte para maniana mariquita", "created_at": "2013-04-12T20:41:14", "screen_name": "BorjaGDLLOPIS", "coordinates": {"type": "Point", "coordinates": [-0.5018282, 38.3886809]}},{"text": "@mervphlvn resmen tehdit ya :) gizliden aray\u0131p kill bill \u0131sl\u0131\u011f\u0131 \u00e7almak nedir ki ba\u015fka :)) \u00f6ld\u00fcrcekler beni baby :)", "created_at": "2013-04-12T20:41:15", "screen_name": "TugceHbk", "coordinates": {"type": "Point", "coordinates": [30.5239707, 39.7675416]}},{"text": "Tiger! \u26f3", "created_at": "2013-04-12T20:41:16", "screen_name": "BDemersky", "coordinates": {"type": "Point", "coordinates": [-71.13169232, 42.35489163]}},{"text": "With my gyal @MariaJouliou \ud83d\ude18", "created_at": "2013-04-12T20:41:18", "screen_name": "_ElianaElia", "coordinates": {"type": "Point", "coordinates": [-0.10821956, 51.62745567]}},{"text": "Ahora y siempre musho betis!", "created_at": "2013-04-12T20:41:20", "screen_name": "rafa_caro1", "coordinates": {"type": "Point", "coordinates": [-5.9326168, 37.4041583]}},{"text": "@Mr_Baker11 @tweeetinkeaton what a great idea!! Enjoy!!", "created_at": "2013-04-12T20:41:22", "screen_name": "ShanaYeatts", "coordinates": {"type": "Point", "coordinates": [-95.29183863, 32.32589277]}},{"text": "@GizemmErdgnn  Supper yaa cook cookk sevindim :D", "created_at": "2013-04-12T20:41:25", "screen_name": "Rapunzzelll", "coordinates": {"type": "Point", "coordinates": [36.1729093, 36.5854362]}},{"text": "\u0648 \u064a\u064e \u062c\u0627\u0647\u0644\u064a\u0646 : \u0623\u0646\u0627 \u0628\u0651 \u0627\u0644\u0639\u0645\u0631 \u0645\u0631\u0647 \u2665\u2665 ~", "created_at": "2013-04-12T20:41:28", "screen_name": "kant_a7bek", "coordinates": {"type": "Point", "coordinates": [55.66636, 24.23596]}},{"text": "@NoeliaFru ya se que no me conoces, y soy pirag\u00fcista empedernida, vivo para el, tengo una media de 9,2 por lo que tengo cerebro!", "created_at": "2013-04-12T20:41:28", "screen_name": "nerelpez_", "coordinates": {"type": "Point", "coordinates": [-8.1653554, 43.400192]}},{"text": "I'm at Wish Cafe (Denizli) w/ 4 others http://t.co/mouYJtiQMh", "created_at": "2013-04-12T20:41:30", "screen_name": "feritduran86", "coordinates": {"type": "Point", "coordinates": [29.09567977, 37.74386459]}},{"text": "@CokeBoys1 mdrr! J'rigooooole mon bishooooooon", "created_at": "2013-04-12T20:41:30", "screen_name": "DelphineThmg", "coordinates": {"type": "Point", "coordinates": [3.1272684, 50.7691562]}},{"text": "@pqpmatheos compra mais *-*", "created_at": "2013-04-12T20:41:31", "screen_name": "MilleAbreu_", "coordinates": {"type": "Point", "coordinates": [-40.3522956, -20.3614794]}},{"text": "Lo chiamano IL FENOMENO a me mi (concedetemi l'a me mi) pare un PAZZO!", "created_at": "2013-04-12T20:41:33", "screen_name": "lupis_simonetta", "coordinates": {"type": "Point", "coordinates": [8.9167841, 44.42413403]}},{"text": "weve had soo many sessions in this car", "created_at": "2013-04-12T20:41:36", "screen_name": "OHSNAP_itsjChap", "coordinates": {"type": "Point", "coordinates": [-84.09680683, 40.75482332]}},{"text": "@lovedaycee nvm :p lol ill probably see you there (:", "created_at": "2013-04-12T20:41:37", "screen_name": "DasTheBoss_", "coordinates": {"type": "Point", "coordinates": [-118.03733351, 34.07323712]}},{"text": "Sp #partiu", "created_at": "2013-04-12T20:41:38", "screen_name": "_Williansr", "coordinates": {"type": "Point", "coordinates": [-46.914068, -23.16806]}},{"text": "\u0645\u0640\u0640\u0651\u064e\u06aa\u0640\u06c3\u2661.                                                      \ufedf\u0622 \ufb60\u06c8\ufe9f\u062f \ufee3\u062f\ufef3\u0646\u06c1 \ufed3\u064a \u0627\u064e\ufedf\ufecb\u0627\ufedf\u0645 \ufb60\ufeb3\u0627\u06c8\u064a \u0627\u064e\ufedf\u0631\u0627\u062d\u06c1         \u0627\ufedf\ufee7\ufed3\ufeb3\u064a\u06c1 \u0627\u064e\ufedf\ufee3\u06c8\ufe9f\u06c8\u062f\u0647 \ufe91\ufbaa\u0627 \u2661", "created_at": "2013-04-12T20:41:38", "screen_name": "ahmed059590", "coordinates": {"type": "Point", "coordinates": [39.89961, 21.46891]}},{"text": "@soynerdsexy otra ni\u00f1a con corona. @ C.C. L\u00edder http://t.co/TufbOsPQsU", "created_at": "2013-04-12T20:41:39", "screen_name": "Fuckyou_Peter", "coordinates": {"type": "Point", "coordinates": [-66.82114899, 10.48597625]}},{"text": "Sepertiga malam adl waktu yg baik untuk berdoa dan berkontemplasi katanya. Krn disaat inilag gelombang alfa di otak menurun dan badan relaks", "created_at": "2013-04-12T20:41:39", "screen_name": "ABeccaMakeUp", "coordinates": {"type": "Point", "coordinates": [106.81322618, -6.28302889]}},{"text": "@ahmedhaji21 tsk ! Kolaveri in the bath tub ?? that is Rebel bro simply rebel", "created_at": "2013-04-12T20:41:40", "screen_name": "osmanzaheer93", "coordinates": {"type": "Point", "coordinates": [55.16286993, 25.06142332]}},{"text": "\u201cteu cu, sua recalcada\u201c viado sem argumentos", "created_at": "2013-04-12T20:41:41", "screen_name": "pqplu_", "coordinates": {"type": "Point", "coordinates": [-48.4746635, -1.4206164]}},{"text": "'I never had the words to say, but now I'm asking you to stay.'", "created_at": "2013-04-12T20:41:41", "screen_name": "saraolmosceg", "coordinates": {"type": "Point", "coordinates": [-0.8517971, 37.7447271]}},{"text": "Esperando a mi hombre (@ Boulevard Suites w/ @mr_plicker) http://t.co/dnpV1Rfic5", "created_at": "2013-04-12T20:41:41", "screen_name": "Mrs_Plicker", "coordinates": {"type": "Point", "coordinates": [-70.57468412, -33.39989548]}},{"text": "@L4nakicks \ud83d\udc4d http://t.co/0EVnRS8iGA", "created_at": "2013-04-12T20:41:41", "screen_name": "connorSbrown", "coordinates": {"type": "Point", "coordinates": [-4.37309416, 55.89330885]}},{"text": "Jlai loupe pas", "created_at": "2013-04-12T20:41:43", "screen_name": "Ardian220", "coordinates": {"type": "Point", "coordinates": [6.10305487, 46.22583892]}},{"text": "@ejar_Buc   claro q no.... Ahora la tomamos....", "created_at": "2013-04-12T20:41:43", "screen_name": "lilianacdiaz", "coordinates": {"type": "Point", "coordinates": [-73.2520105, 6.472671]}},{"text": "@GaigeHilty maad", "created_at": "2013-04-12T20:41:44", "screen_name": "mcnamara_adam", "coordinates": {"type": "Point", "coordinates": [-91.0158213, 41.5836064]}},{"text": "@HibrahimLpoto de fouuuu", "created_at": "2013-04-12T20:41:45", "screen_name": "LacrimSiham", "coordinates": {"type": "Point", "coordinates": [2.20295008, 48.88658814]}},{"text": "@yunnaisland \u3046\u3093   \u962a\u795e\u5927\u9707\u707d\u601d\u3044\u51fa\u3057\u305f\uff01\u03a3(\u00d7_\u00d7;)!", "created_at": "2013-04-12T20:41:45", "screen_name": "shibavitz", "coordinates": {"type": "Point", "coordinates": [135.7889413, 34.6464563]}},{"text": "@DaphneBarre tu dis ton nom et que tu es a yourcenar c'est tout", "created_at": "2013-04-12T20:41:46", "screen_name": "BridouxMaud", "coordinates": {"type": "Point", "coordinates": [2.3044141, 50.6351211]}},{"text": "Kalo udaranya gini,bawaanya ngantuk (\u00b4O`)", "created_at": "2013-04-12T20:41:48", "screen_name": "apfryphey", "coordinates": {"type": "Point", "coordinates": [106.85462, -6.12751]}},{"text": "Probably going to be the only one without a parent at accepted students day fine by me :-)", "created_at": "2013-04-12T20:41:49", "screen_name": "riguy156", "coordinates": {"type": "Point", "coordinates": [-71.59288191, 43.44144144]}},{"text": "@KathyyEvelin okay 50", "created_at": "2013-04-12T20:41:52", "screen_name": "FransGomez", "coordinates": {"type": "Point", "coordinates": [-80.21137878, 25.93017158]}},{"text": "@Sinane95G @EtienneNg95 troooop mouauahahahahaha", "created_at": "2013-04-12T20:41:53", "screen_name": "FatimaSosso", "coordinates": {"type": "Point", "coordinates": [2.4734605, 49.040704]}},{"text": "People follow me please (: @Akon @CodySimpson @RegusUSA @LennyKravitz @SoAwkwrd @LuizMaxton @vaaleesg @MeekMill @MikesDreamGirl @pixiesongs", "created_at": "2013-04-12T20:41:53", "screen_name": "shaq_ziie", "coordinates": {"type": "Point", "coordinates": [178.44900015, -37.77795475]}},{"text": "@_samboooo @lyndon_saul half way through and it's fucking bollocks", "created_at": "2013-04-12T20:41:54", "screen_name": "AdamHorsfall15", "coordinates": {"type": "Point", "coordinates": [-1.59304214, 53.67788904]}},{"text": "#VenezuelaNeedsMatt #VenezuelaNeedsMatt #VenezuelaNeedsMatt  @Briskies794 @matthunter123 @HuntermomLouisa @AlexisDiazPro 9", "created_at": "2013-04-12T20:41:54", "screen_name": "HuntersVzl", "coordinates": {"type": "Point", "coordinates": [63.53194, -8.10444]}},{"text": "Acordei agr", "created_at": "2013-04-12T20:41:54", "screen_name": "viniciusbrunini", "coordinates": {"type": "Point", "coordinates": [-51.1931198, -23.3188617]}},{"text": "This eating once a day shit is BULLSHIT! I'm so hungry, my poor tummy hates me. :[", "created_at": "2013-04-12T20:41:55", "screen_name": "OhItsBacon", "coordinates": {"type": "Point", "coordinates": [-84.39905619, 33.71541109]}},{"text": "@Shella101123 @AusHippie_RBLX let's go we fixin a throwdown and no my hair changed color idk how", "created_at": "2013-04-12T20:41:57", "screen_name": "LolMeLol1", "coordinates": {"type": "Point", "coordinates": [-86.7958169, 33.7511364]}},{"text": ":(", "created_at": "2013-04-12T20:41:58", "screen_name": "sandkillercs", "coordinates": {"type": "Point", "coordinates": [-50.3107652, -21.2973273]}},{"text": "Nap time before work \ud83d\udca4\ud83d\udca4\ud83d\udca4", "created_at": "2013-04-12T20:41:58", "screen_name": "50Eric", "coordinates": {"type": "Point", "coordinates": [-87.90164612, 42.85500089]}},{"text": "Because fuck you.. thats why.", "created_at": "2013-04-12T20:42:00", "screen_name": "Deee_Nicoleee", "coordinates": {"type": "Point", "coordinates": [-87.95833386, 41.95503811]}},{"text": "Boc\u00e31 quer chocolate , opksopksopks.", "created_at": "2013-04-12T20:42:01", "screen_name": "BrunnoMedeiros3", "coordinates": {"type": "Point", "coordinates": [-44.1339289, -22.5072921]}},{"text": "@TigersFan_Will hey! will you send me the pic of Clayton and me? 9106446412", "created_at": "2013-04-12T20:42:04", "screen_name": "tarheelchik789", "coordinates": {"type": "Point", "coordinates": [-78.76990312, 35.07541773]}},{"text": "\"\u200f\u0623\u062d\u064a\u0627\u0646\u0627\u064b \u0644\u0627 \u0628\u062f \u0623\u0646 \u062a\u062f\u064a\u0631 \u0638\u0647\u0631\u0643 \u0644\u0644\u0628\u0639\u0636 !!\n\n\u0644\u064a\u0633 \u063a\u0631\u0648\u0631\u0627 \u0648\u0644\u0627 \u0636\u0639\u0641\u0627\u064b \u0648\u0625\u0646\u0645\u0627 :\n\n\"\u0639\u0644\u0627\u062c \u0627\u0644\u062c\u0627\u0647\u0644 \u0627\u0644\u062a\u062c\u0627\u0647\u0644\"\"", "created_at": "2013-04-12T21:40:04", "screen_name": "sosu1221", "coordinates": {"type": "Point", "coordinates": [42.8546018, 18.3033249]}},{"text": "hoje s\u00f3 vim p faculdade p n ficarem cm sdds de mim", "created_at": "2013-04-12T21:40:06", "screen_name": "supportless", "coordinates": {"type": "Point", "coordinates": [-43.1174822, -22.88948246]}},{"text": "MY LITTLE BROTHERS HAMSTER JUST SNEEZED AND IT WAS THE CUTEST THING I'VE EVER SEEN.", "created_at": "2013-04-12T21:40:07", "screen_name": "AustinHankinss", "coordinates": {"type": "Point", "coordinates": [-87.39434768, 39.52921964]}},{"text": "tesla dinliyozzz agaaaaa  asdfhjlk", "created_at": "2013-04-12T21:40:08", "screen_name": "Hipoyit", "coordinates": {"type": "Point", "coordinates": [29.0482879, 41.1117769]}},{"text": "Igual me contestas ya y tal.", "created_at": "2013-04-12T21:40:10", "screen_name": "IreneYthu", "coordinates": {"type": "Point", "coordinates": [-2.8864247, 43.2367948]}},{"text": "I'm at @24HourFitness (Hasbrouck Heights, NJ) http://t.co/yMwZyG6MhG", "created_at": "2013-04-12T21:40:12", "screen_name": "Ay_yo_Zay", "coordinates": {"type": "Point", "coordinates": [-74.06520713, 40.86492559]}},{"text": "@monomera @kdpisces the \"good\"(?) news  - Dublin ain't much better. #smalltowngaybar", "created_at": "2013-04-12T21:40:13", "screen_name": "Golden_Gaytime", "coordinates": {"type": "Point", "coordinates": [-6.3075918, 53.3407556]}},{"text": "HAHAHAHA\ud83d\ude02\ud83d\ude02\ud83d\ude02 http://t.co/EptsjLN7Ib", "created_at": "2013-04-12T21:40:13", "screen_name": "DylaaanBarker", "coordinates": {"type": "Point", "coordinates": [-1.18730749, 52.95752075]}},{"text": "Ahhhhh I'm hyped up.", "created_at": "2013-04-12T21:40:14", "screen_name": "TeexWoodxAll", "coordinates": {"type": "Point", "coordinates": [-83.88618568, 43.17655087]}},{"text": "some one direction fans are really immature. i get that you love your boys, but please think before telling someone to kill theirselves.", "created_at": "2013-04-12T21:40:14", "screen_name": "AlwaysWAT18", "coordinates": {"type": "Point", "coordinates": [147.01639312, -43.02295793]}},{"text": "Tem niver da Carol hoje *-*", "created_at": "2013-04-12T21:40:15", "screen_name": "gabrielladinniz", "coordinates": {"type": "Point", "coordinates": [-49.2109497, -18.4129397]}},{"text": "@LilRu803 yaya ! You are amazing !", "created_at": "2013-04-12T21:40:15", "screen_name": "keepCALM_swank", "coordinates": {"type": "Point", "coordinates": [-77.49443711, 38.91388195]}},{"text": "@umacoelho_ @Anapaullaa_ @BrunnoReiiz e pegando um fresco hauehauehaue", "created_at": "2013-04-12T21:40:16", "screen_name": "putamerdacaio", "coordinates": {"type": "Point", "coordinates": [-54.7268273, -2.4287875]}},{"text": "@estachava @alechei8A #yocongaby jajaja yo como quiera te quiero cuidate bye", "created_at": "2013-04-12T21:40:17", "screen_name": "gaby4682", "coordinates": {"type": "Point", "coordinates": [-100.33844, 25.66752]}},{"text": "@Sexpot_Sharon where have you been?! I haven't seen many tweets from you recently and my twitter was beginning to miss you! \ud83d\udc9b", "created_at": "2013-04-12T21:40:19", "screen_name": "beccajoah", "coordinates": {"type": "Point", "coordinates": [-3.44201119, 53.25847412]}},{"text": "I'm at Academia Corpo e Sa\u00fade (Bras\u00edlia, DF) http://t.co/LNFaaP0uQf", "created_at": "2013-04-12T21:40:21", "screen_name": "Fernandomcgs", "coordinates": {"type": "Point", "coordinates": [-48.06197594, -15.8225614]}},{"text": "\u0627\u0644\u062d\u0628 \u0645\u0627\u0647\u0648 \u0628\u0633\u064a\u0637 \u0648\u0644\u0627 \u0647\u0648 \u0647\u064a\u0646 !! \n\u0648\u0644\u0643\u0646\u064a \u0634\u0641\u062a \u0627\u0644\u062d\u0628 \u0643\u0644\u0647 \u0627\u0646\u0627 \u0633\u0639\u0627\u062f\u0647 \u061f\u061f\n\u0644\u0627 \u062a\u0642\u0648\u0644\u064a\u0646 \u0627\u0646\u0627 \u0645\u0627 \u0627\u0646\u0627 \u061f\u061f\n\n\u0647\u0647\u0647\u0647\u0647\u0647\u0647\u0647\u0647\u0647 \u0643\u0628\u064a\u0631 \u064a\u0627\u0634\u0627\u0639\u0631 #\u0627\u0644\u0645\u0644\u064a\u0627\u0631_\u0627\u0628\u0648_\u0647\u062f\u064a\u0627\u0646 \ud83d\ude02\ud83d\ude02\ud83d\ude1d\ud83d\ude1d", "created_at": "2013-04-12T21:40:21", "screen_name": "SULTAN0804", "coordinates": {"type": "Point", "coordinates": [-0.20258303, 51.49376342]}},{"text": "I'm at Pra\u00e7a Andr\u00e9 de Albuquerque (Natal, RN) http://t.co/4xrVWFuzuv", "created_at": "2013-04-12T21:40:21", "screen_name": "pontestha", "coordinates": {"type": "Point", "coordinates": [-35.2091217, -5.78513278]}},{"text": "I really need to stop eating the first meal of the day at 2:30.", "created_at": "2013-04-12T21:40:21", "screen_name": "TeamHate", "coordinates": {"type": "Point", "coordinates": [-121.97761212, 37.23263043]}},{"text": "@LoganCafetao eu namoro o Logan no The Sims do celular. MUAHAHAHHAHA", "created_at": "2013-04-12T21:40:21", "screen_name": "RusherLerda", "coordinates": {"type": "Point", "coordinates": [-43.191023, -22.9801364]}},{"text": "@jelenadear \u043d\u0435\u0442, \u043d\u0435\u0442, \u043d\u0435 \u043d\u0430\u0434\u043e", "created_at": "2013-04-12T21:40:21", "screen_name": "MashaaDmitrieva", "coordinates": {"type": "Point", "coordinates": [30.47466493, 59.92310147]}},{"text": "Riqu\u00edsima la comida (@ Adonis) http://t.co/fIFZWvDqT2", "created_at": "2013-04-12T21:40:22", "screen_name": "FerOrozcoA", "coordinates": {"type": "Point", "coordinates": [-99.18796648, 19.43535059]}},{"text": "I'm at Bongo Bar (Bursa, T\u00fcrkiye) w/ 36 others http://t.co/cMvHxBUsFY", "created_at": "2013-04-12T21:40:23", "screen_name": "ZGulle", "coordinates": {"type": "Point", "coordinates": [29.04089928, 40.19765868]}},{"text": "So close... http://t.co/f7DRZVjmNn", "created_at": "2013-04-12T21:40:24", "screen_name": "stunnakjr", "coordinates": {"type": "Point", "coordinates": [-99.67431915, 33.32197255]}},{"text": "Je veux jamais rentrer.", "created_at": "2013-04-12T21:40:26", "screen_name": "CyrielleLam", "coordinates": {"type": "Point", "coordinates": [-115.31480006, 36.12878557]}},{"text": "@EmilyDowntown bigggg I'm not going to be at formal this year :( had vaca planned way before! miss u lots we will get tg soon pinky swear xo", "created_at": "2013-04-12T21:40:28", "screen_name": "linseymacFIERCE", "coordinates": {"type": "Point", "coordinates": [-74.04981245, 40.7698093]}},{"text": "mmm apple juice \ud83d\ude0b", "created_at": "2013-04-12T21:40:31", "screen_name": "ShawnaHanna", "coordinates": {"type": "Point", "coordinates": [-95.23130494, 38.93370332]}},{"text": "N\u00e3o vou mentir que t\u00f4 com aquela pregui\u00e7a de ir pra academia! ;/", "created_at": "2013-04-12T21:40:34", "screen_name": "Taziana_Moraes", "coordinates": {"type": "Point", "coordinates": [-35.1962882, -5.7822406]}},{"text": "\ud83d\udcd8 \u0642\u064e\u0628\u0652\u0644\u064e \u0623\u064e\u0646 (( \u062a\u064e\u062d\u0652\u0643\u0650\u0645\u064f )) \u0639\u064e\u0644\u064e\u0649 \u0625\u0650\u0646\u0652\u0633\u064e\u0627\u0646\u064c \u0625\u0650\u0633\u0652\u0645\u064e\u0639 \u0645\u0646\u0647 \u0644\u0627 \u0627\u0646 \u062a\u0633\u0645\u0639 \u0639\u0646\u0647 \u0652", "created_at": "2013-04-12T21:40:34", "screen_name": "sonata_171", "coordinates": {"type": "Point", "coordinates": [46.7635876, 24.788735]}},{"text": "#instaplace #instaplaceapp #instagood #travelgram #photooftheday #instamood #picoftheday #instadaily\u2026 http://t.co/DtwQO1uqWq", "created_at": "2013-04-12T21:40:35", "screen_name": "twglamourcafe", "coordinates": {"type": "Point", "coordinates": [8.910315, 45.700837]}},{"text": "\"The only one \"", "created_at": "2013-04-12T21:40:37", "screen_name": "VictorBarreiraA", "coordinates": {"type": "Point", "coordinates": [-3.83337371, 40.34441205]}},{"text": "Bateram no carro da minha m\u00e3e. Um homem ainda ... Sai do carro s\u00f3 pra xingar mesmo. Gente burra n\u00e3o merecia ter carta!", "created_at": "2013-04-12T21:40:37", "screen_name": "dearcaroline_", "coordinates": {"type": "Point", "coordinates": [-46.57833479, -23.62999044]}},{"text": "@kempjan14 @draaiomjeoren_ Doet ik toch???", "created_at": "2013-04-12T21:40:37", "screen_name": "Joopjadieja", "coordinates": {"type": "Point", "coordinates": [5.65509925, 52.03816796]}},{"text": "La vida se compone de relaciones, el resto son detalles", "created_at": "2013-04-12T21:40:39", "screen_name": "GabyGiraldoG", "coordinates": {"type": "Point", "coordinates": [-76.5334103, 3.3647409]}},{"text": "The trouble with up is that there is always a down. #thatslife #truth", "created_at": "2013-04-12T21:40:39", "screen_name": "a_koropatnicki", "coordinates": {"type": "Point", "coordinates": [-99.93402628, 47.76377625]}},{"text": "I Want This Weekend Too Be Fun. \u263a", "created_at": "2013-04-12T21:40:41", "screen_name": "MissReal_", "coordinates": {"type": "Point", "coordinates": [-104.57892617, 38.31240564]}},{"text": "Been broken up for a month but you were trying to work things out between then? LOL. SHUT. THE. FUCK. UP.", "created_at": "2013-04-12T21:40:42", "screen_name": "Holly_mariex3", "coordinates": {"type": "Point", "coordinates": [-97.3878878, 35.4594495]}},{"text": "rumbo al continente africano.... MENUDO TRANSATLANTICO :) http://t.co/AFKKnj8OlL", "created_at": "2013-04-12T21:40:42", "screen_name": "santii_rubio", "coordinates": {"type": "Point", "coordinates": [-2.4725389, 36.8361634]}},{"text": "\u201c@RelatableQuote: jesus didn't sacrifice his own life for you to wear knee high converse\u201d @kellyjean509 #yourlife", "created_at": "2013-04-12T21:40:43", "screen_name": "MarinaRebellato", "coordinates": {"type": "Point", "coordinates": [-87.89218159, 43.07289172]}},{"text": "Night out! http://t.co/zyLudiuqIw", "created_at": "2013-04-12T21:40:44", "screen_name": "GoodingJ", "coordinates": {"type": "Point", "coordinates": [-0.13022113, 51.51395151]}},{"text": "@stevegs007 oh yeah sorry haha! There comes a point where you can't do that though! But agree in principle!", "created_at": "2013-04-12T21:40:45", "screen_name": "WillEBowden", "coordinates": {"type": "Point", "coordinates": [-1.69393169, 53.68509324]}},{"text": "Q lindo se siente maniana jugar contra boca :)", "created_at": "2013-04-12T21:40:45", "screen_name": "tomiiloscalzo", "coordinates": {"type": "Point", "coordinates": [-57.55825949, -38.04442231]}},{"text": "Lol keep up.", "created_at": "2013-04-12T21:40:46", "screen_name": "AdoreIsaG", "coordinates": {"type": "Point", "coordinates": [-117.711863, 34.0497235]}},{"text": "In Pontiac Michigan tonight... Is anyone in the area? (at @TheCrofoot Ballroom for Mansion On The Moon + more) http://t.co/pHD8CHcspY", "created_at": "2013-04-12T21:40:47", "screen_name": "TimSkells", "coordinates": {"type": "Point", "coordinates": [-83.291297, 42.636621]}},{"text": "Les flirts sont les meilleures relations", "created_at": "2013-04-12T21:40:48", "screen_name": "A_SarahBGS", "coordinates": {"type": "Point", "coordinates": [2.40126096, 48.86943856]}},{"text": "@Borkan_Ice no worries. That website is god like. Has all 40k and fantasy ones :-)", "created_at": "2013-04-12T21:40:48", "screen_name": "MunkeyKungFu", "coordinates": {"type": "Point", "coordinates": [-2.59476565, 51.434889]}},{"text": "Sleep ...", "created_at": "2013-04-12T21:40:48", "screen_name": "MAYED_0", "coordinates": {"type": "Point", "coordinates": [55.93707, 25.74198]}},